,NOMBRE,NOMBRE-VIA,DISTRITO,LATITUD,LONGITUD,DISTANCIA_SEDES
0,Campo de Golf del Centro Nacional de Golf,ARROYO DEL MONTE,FUENCARRAL-EL PARDO,40.4855081729451,-3.735278975476509,POINT (4506826.154319164 -416104.2065551275)
1,Campo de Golf del Club de Golf Olivar de la Hinojosa,VIA DE DUBLIN,BARAJAS,40.46535088559728,-3.6112928743147017,POINT (4504582.255355831 -402273.7208142197)
2,Campos de Fútbol Ernesto Cotorruelo,VIA LUSITANA,CARABANCHEL,40.38123067335327,-3.72417923544762,POINT (4495218.036163406 -414865.966552915)
3,Centro Comercial Dreams - Palacio Municipal de Hielo,SILVANO,HORTALEZA,40.46291274127404,-3.635733711568097,POINT (4504310.842371287 -404999.9123872458)
4,Centro de Alto Rendimiento del Consejo Superior de Deportes,MARTIN FIERRO,MONCLOA-ARAVACA,40.43681199436766,-3.731957404586383,POINT (4501405.320516344 -415733.6645299961)
5,Centro de Natación Mundial 86 (M - 86),JOSE MARTíNEZ DE VELASCO,RETIRO,40.41550175083768,-3.6670879396617257,POINT (4499033.075057907 -408497.3489838375)
6,Centro Deportivo Municipal  María Jesús Rosa (La Vaguada),MONFORTE DE LEMOS,FUENCARRAL-EL PARDO,40.47876758357458,-3.7086993281311904,POINT (4506075.795342792 -413139.1196950942)
7,Centro Deportivo Municipal Alcántara,ALCANTARA,SALAMANCA,40.42810291538114,-3.6737317205040494,POINT (4500435.830278288 -409238.4514245269)
8,Centro Deportivo Municipal Alfredo Goyeneche,ARROYO DE POZUELO,MONCLOA-ARAVACA,40.45212135012858,-3.783283203719198,POINT (4503109.550204024 -421459.535934374)
9,Centro Deportivo Municipal Aluche,DE LAS AGUILAS,LATINA,40.382720517194784,-3.773653600881568,POINT (4495383.884821204 -420385.2382514398)
10,Centro Deportivo Municipal Ángel Nieto (antiguo Puente de Vallecas),PAYASO FOFO,PUENTE DE VALLECAS,40.39146194707861,-3.6598636029775866,POINT (4496356.976344677 -407691.4927776916)
11,Centro Deportivo Municipal Antonio Díaz Miguel,JOAQUIN DICENTA,TETUAN,40.471254265861454,-3.6953256978963807,POINT (4505239.416640799 -411647.2609983729)
12,Centro Deportivo Municipal Barajas,LOGROÑO,BARAJAS,40.46301382809657,-3.587693324074623,POINT (4504322.095304897 -399641.4381334092)
13,Centro Deportivo Municipal Barceló,BARCELO,DISTRITO,40.42671069347762,-3.698827763611272,POINT (4500280.848844916 -412037.9221718144)
14,Centro Deportivo Municipal Canódromo,VIA CARPETANA,CARABANCHEL,40.39801608457685,-3.735272504053953,POINT (4497086.57959357 -416103.4846260688)
15,Centro Deportivo Municipal Casa de Campo,PUERTA DEL ANGEL,MONCLOA-ARAVACA,40.41612628789201,-3.733536573641621,POINT (4499102.598204777 -415909.8305485775)
16,Centro Deportivo Municipal Centro Integrado Arganzuela,CANARIAS,ARGANZUELA,40.40207279862862,-3.6955325387824014,POINT (4497538.170936108 -411670.3343955348)
17,Centro Deportivo Municipal Cerro Almodóvar,CERRO DE ALMODOVAR,VILLA DE VALLECAS,40.38168570611539,-3.602336460953483,POINT (4495268.690178779 -401274.7186681543)
18,Centro Deportivo Municipal Chamartín,PIO XII,CHAMARTIN,40.46113349830694,-3.676208246061129,POINT (4504112.777950193 -409514.7050448444)
19,Centro Deportivo Municipal Circuito BMX,EMBAJADORES,ARGANZUELA,40.385539006771225,-3.6898722494765366,POINT (4495697.63764566 -411038.9229541846)
20,Centro Deportivo Municipal Ciudad de los Poetas,ANTONIO MACHADO,MONCLOA-ARAVACA,40.465920678080856,-3.718932559465857,POINT (4504645.684364961 -414280.6750318132)
21,Centro Deportivo Municipal Concepción,JOSE DEL HIERRO,CIUDAD LINEAL,40.43725652047252,-3.6484498132292025,POINT (4501454.804935983 -406418.3270805763)
22,Centro Deportivo Municipal Daoíz y Velarde 1,DAOÍZ Y VELARDE,RETIRO,40.40236990974131,-3.6772808932293217,POINT (4497571.245193881 -409634.3578593663)
23,Centro Deportivo Municipal Daoíz y Velarde 2,ALBERCHE,RETIRO,40.40079918971232,-3.6778902970366896,POINT (4497396.393440075 -409702.336363088)
24,Centro Deportivo Municipal El Espinillo,VILLAVERDE A VALLECAS,VILLAVERDE,40.35634193991933,-3.686595141820635,POINT (4492447.43503105 -410673.3598624719)
25,Centro Deportivo Municipal El Olivillo,OLIVILLO,LATINA,40.40652470221465,-3.745889233801086,POINT (4498033.754576365 -417287.8566902932)
26,Centro Deportivo Municipal Entrevías,SUR,PUENTE DE VALLECAS,40.378413212706285,-3.674532317137481,POINT (4494904.397878853 -409327.7569881299)
27,Centro Deportivo Municipal Escuelas de San Antón,FARMACIA,CENTRO,40.42382670120857,-3.699010103263697,POINT (4499959.804294074 -412058.2625013213)
28,Centro Deportivo Municipal Estanque del Retiro,COLOMBIA,RETIRO,40.418436005960814,-3.684503131951572,POINT (4499359.714844072 -410439.9957600642)
29,Centro Deportivo Municipal Fabián Roncero,SEPTIMA,SAN BLAS-CANILLEJAS,40.44965684114441,-3.597577201182505,POINT (4502835.202318851 -400743.8728158274)
30,Centro Deportivo Municipal Faustina Valladolid (antiguo Valdebernardo),LADERA DE LOS ALMENDROS,VICALVARO,40.40418961057298,-3.622901144863193,POINT (4497773.813363858 -403568.5269047874)
31,Centro Deportivo Municipal Félix Rubio,ALIANZA,VILLAVERDE,40.357429678675295,-3.691528804696943,POINT (4492568.521555481 -411223.7130778909)
32,Centro Deportivo Municipal Fernando Martín,SANTO ANGEL DE LA GUARDA,MONCLOA-ARAVACA,40.46093540462317,-3.712191829928863,POINT (4504090.726262186 -413528.7198824321)
33,Centro Deportivo Municipal Francisco Fernández Ochoa,CATORCE OLIVAS,CARABANCHEL,40.36581776978113,-3.740893980533789,POINT (4493502.279586109 -416730.5987078679)
34,Centro Deportivo Municipal Francos Rodríguez,NUMANCIA,MONCLOA-ARAVACA,40.45358753138912,-3.713093094582233,POINT (4503272.764755357 -413629.2592010797)
35,Centro Deportivo Municipal Fuente del Berro,ELVIRA,SALAMANCA,40.42171956854877,-3.6652515154670167,POINT (4499725.239359351 -408292.4999637826)
36,Centro Deportivo Municipal Gallur,GALLUR,LATINA,40.398465832065,-3.7353834506869217,POINT (4497136.645254936 -416115.8614415859)
37,Centro Deportivo Municipal Gimnasio Moscardó,PILAR DE ZARAGOZA,SALAMANCA,40.437945289677,-3.674502029997267,POINT (4501531.478373099 -409324.3784936657)
38,Centro Deportivo Municipal Hortaleza,ESTACION DE HORTALEZA,HORTALEZA,40.4787279264401,-3.6527183525553006,POINT (4506071.380730774 -406894.4648339559)
39,Centro Deportivo Municipal José María Cagigal,SANTA POLA,MONCLOA-ARAVACA,40.43214955342785,-3.736964599283136,POINT (4500886.299965071 -416292.2489787623)
40,Centro Deportivo Municipal La Almudena,NICOLAS SALMERÓN,CIUDAD LINEAL,40.42060649869604,-3.6324237307227616,POINT (4499601.332990128 -404630.7046037836)
41,Centro Deportivo Municipal La Bombilla,SENDA DEL REY,MONCLOA-ARAVACA,40.43266791217288,-3.731947836490648,POINT (4500944.003396617 -415732.5971510481)
42,Centro Deportivo Municipal La Chopera,FERNAN NUÑEZ,RETIRO,40.41167030849678,-3.685675652101215,POINT (4498606.560847514 -410570.7905401916)
43,Centro Deportivo Municipal La Elipa,ALCALDE GARRIDO JUARISTI,MORATALAZ,40.41433123768487,-3.6559498758522833,POINT (4498902.774129769 -407254.9292817101)
44,Centro Deportivo Municipal La Fundi,ALICANTE,ARGANZUELA,40.39437715885103,-3.691341060146108,POINT (4496681.496234737 -411202.7699985218)
45,Centro Deportivo Municipal La Masó,MASO,FUENCARRAL-EL PARDO,40.48442599932086,-3.7144222564719858,POINT (4506705.687302364 -413777.5321851289)
46,Centro Deportivo Municipal La Mina,MONSEÑOR OSCAR ROMERO,CARABANCHEL,40.38234955664604,-3.746482524823702,POINT (4495342.589681813 -417354.0429667057)
47,Centro Deportivo Municipal Lago Casa de Campo,EMBARCADERO,MONCLOA-ARAVACA,40.417013097503705,-3.7314952685679934,POINT (4499201.317399181 -415682.1104753327)
48,Centro Deportivo Municipal Las Cruces,POBLADOS,LATINA,40.379148937377394,-3.756554762411969,POINT (4494986.298374604 -418477.6870842113)
49,Centro Deportivo Municipal Los Prunos,PETUNIAS,HORTALEZA,40.453257453448046,-3.6186956428199855,POINT (4503236.020647035 -403099.4361925109)
50,Centro Deportivo Municipal Luis Aragonés,EL PROVENCIO,HORTALEZA,40.464650948053816,-3.6275877145025817,POINT (4504504.338664905 -404091.2794963862)
51,Centro Deportivo Municipal Margot Moles (Vicálvaro),POLIDEPORTIVO,VICALVARO,40.40914061858403,-3.603264732850392,POINT (4498324.957054562 -401378.258052264)
52,Centro Deportivo Municipal Marqués de Samaranch,IMPERIAL,ARGANZUELA,40.40761501410649,-3.7173807221939192,POINT (4498155.12754097 -414107.5609121636)
53,Centro Deportivo Municipal Miguel Guillén Prim,FUENTIDUEÑA,VILLA DE VALLECAS,40.37381855452167,-3.623151468598157,POINT (4494392.922869373 -403596.4486194642)
54,Centro Deportivo Municipal Moratalaz,VALDEBERNARDO,MORATALAZ,40.39885854572339,-3.632432290214539,POINT (4497180.361939417 -404631.6593601257)
55,Centro Deportivo Municipal Moscardó,ANDRES ARTEAGA,USERA,40.38850290426967,-3.706303079808029,POINT (4496027.57720595 -412871.811118137)
56,Centro Deportivo Municipal Orcasitas,RAFAELA YBARRA,USERA,40.37558213858424,-3.71245854352948,POINT (4494589.244149189 -413558.472734655)
57,Centro Deportivo Municipal Orcasur,MOREJA,USERA,40.37021993373859,-3.699468900607744,POINT (4493992.326236241 -412109.4422222805)
58,Centro Deportivo Municipal Pabellón Villa de Madrid,BREZOS,BARAJAS,40.46145708324958,-3.5891069291726105,POINT (4504148.799261235 -399799.109059522)
59,Centro Deportivo Municipal Palomeras,TRANVIA DE ARGANDA,PUENTE DE VALLECAS,40.38260362230282,-3.6337151808372496,POINT (4495370.872141355 -404774.7576732981)
60,Centro Deportivo Municipal Peñagrande,MONFORTE DE LEMOS,FUENCARRAL-EL PARDO,40.476792184653526,-3.717566523014736,POINT (4505855.894940786 -414128.2877765034)
61,Centro Deportivo Municipal Peñuelas,ARGANDA,ARGANZUELA,40.39865532340664,-3.704959759845779,POINT (4497157.739334598 -412721.9601261157)
62,Centro Deportivo Municipal Pepu Hernández,NIZA,SAN BLAS-CANILLEJAS,40.42763842661562,-3.606311072744069,POINT (4500384.123625431 -401718.0473386722)
63,Centro Deportivo Municipal Plata y Castañar,PLATA Y CASTAÑAR,VILLAVERDE,40.34998997348078,-3.7178413073202856,POINT (4491740.337361575 -414158.9411314538)
64,Centro Deportivo Municipal Playa Victoria,HIERBABUENA,TETUAN,40.4592763472204,-3.7021136988422567,POINT (4503906.040836914 -412404.4750390101)
65,Centro Deportivo Municipal Pradillo,PRADILLO,CHAMARTIN,40.44910622626739,-3.671618277009419,POINT (4502773.908151117 -409002.6998032791)
66,Centro Deportivo Municipal Pueblo Nuevo,FRANCISCO RIOJA,CIUDAD LINEAL,40.43003240158625,-3.638536354805483,POINT (4500650.619700133 -405312.5308744693)
67,Centro Deportivo Municipal Raúl González,BENIMAMET,VILLAVERDE,40.34622002606704,-3.684337728806363,POINT (4491320.66873516 -410421.5450308805)
68,Centro Deportivo Municipal San Blas,ARCOS DE JALON,SAN BLAS-CANILLEJAS,40.42881010701655,-3.611327358976234,POINT (4500514.554491035 -402277.5672670311)
69,Centro Deportivo Municipal San Cristóbal,PINAZO,VILLAVERDE,40.34267317099495,-3.691448738050884,POINT (4490925.834634617 -411214.7815684675)
70,Centro Deportivo Municipal San Fermín,SAN MARIO,USERA,40.37530577421291,-3.692701024144295,POINT (4494558.479408099 -411354.4753482949)
71,Centro Deportivo Municipal San Juan Bautista,TREVIANA,CIUDAD LINEAL,40.44864976316054,-3.658571179746684,POINT (4502723.094910497 -407547.3269707558)
72,Centro Deportivo Municipal Santa Ana,ALAMEDILLAS,FUENCARRAL-EL PARDO,40.49809469315447,-3.696358010199944,POINT (4508227.279339731 -411762.4169683363)
73,Centro Deportivo Municipal Tenis Casa de Campo,PRINCIPE,MONCLOA-ARAVACA,40.421436625700565,-3.735739625664774,POINT (4499693.742305565 -416155.5950779075)
74,Centro Deportivo Municipal Triángulo de Oro,BRAVO MURILLO,TETUAN,40.46512519238624,-3.6928208378255807,POINT (4504557.131302502 -411367.840695907)
75,Centro Deportivo Municipal Vallecas,ARROYO DEL OLIVAR,PUENTE DE VALLECAS,40.390368919782446,-3.657213682860775,POINT (4496235.301102645 -407395.9026231312)
76,Centro Deportivo Municipal Vallehermoso,FILIPINAS,CHAMBERI,40.44064843863945,-3.709053489027435,POINT (4501832.391539138 -413178.6274504195)
77,Centro Deportivo Municipal Vicente del Bosque,MONFORTE DE LEMOS,FUENCARRAL-EL PARDO,40.4789135943213,-3.693540659747283,POINT (4506092.049184767 -411448.1376590587)
78,Centro Deportivo Municipal Wilfred Agbonavbare (antiguo Alberto García),"REGUERA DE TOMATEROS, 39B",PUENTE DE VALLECAS,40.37242141806343,-3.657451562175517,POINT (4494237.394350273 -407422.4372678318)
79,Ciudad de la Raqueta,MONASTERIO DE EL PAULAR,FUENCARRAL-EL PARDO,40.50000993529701,-3.713206779100881,POINT (4508440.483119784 -413641.9411259415)
80,Club de Campo Villa de Madrid,CASTILLA,MONCLOA-ARAVACA,40.438905,-3.741471,POINT (4501638.312837564 -416794.9693964674)
81,Club Deportivo Somontes,EL PARDO,FUENCARRAL-EL PARDO,40.488405034811485,-3.754570856790117,POINT (4507148.631507029 -418256.3644454084)
82,Complejo Deportivo Hockey Somontes de la Comunidad de Madrid,EL PARDO,FUENCARRAL-EL PARDO,40.486044789841394,-3.7531757327548982,POINT (4506885.89023881 -418100.7260259165)
83,Espacio Polivalente Embajadores,EMBAJADORES,CENTRO,40.40974351501623,-3.706200285363927,POINT (4498392.071178396 -412860.3441105326)
84,Estadio de Vallecas,ALBUFERA,PUENTE DE VALLECAS,40.39234504772624,-3.658246208051559,POINT (4496455.28265909 -407511.0774177826)
85,Estadio Santiago Bernabéu,CONCHA ESPINA,CHAMARTIN,40.45214189379938,-3.68852449488213,POINT (4503111.837114995 -410888.5800534114)
86,Estadio Wanda Metropolitano,LUIS ARAGONES,SAN BLAS-CANILLEJAS,40.4370025624028,-3.603855616996533,POINT (4501426.534452979 -401444.1652846692)
87,Fitness Place Piscina Marbella,VIA LUSITANA,CARABANCHEL,40.38331526797612,-3.720645423270278,POINT (4495450.092175332 -414471.7527073264)
88,Hipódromo de la Zarzuela,PADRE HUIDOBRO,MONCLOA-ARAVACA,40.45332579273131,-3.744602120014955,POINT (4503243.62814125 -417144.2691859218)
89,Instalación Deportiva  Básica Embalse de San Juan,EMBALSE DE SAN JUAN,VILLA DE VALLECAS,40.36264285659688,-3.5981484314802064,POINT (4493148.849867125 -400807.5874588021)
90,Instalación Deportiva Básica Alto del Retiro,ALTO DEL RETIRO,VILLA DE VALLECAS,40.36751469466709,-3.588264644913803,POINT (4493691.180400329 -399705.162185076)
91,Instalación Deportiva Básica Avenida de Cerro Milano,CERRO MILANO,VILLA DE VALLECAS,40.36861899124304,-3.618356801446381,POINT (4493814.110132848 -403061.6411942258)
92,Instalación Deportiva Básica Avenida de las Suertes,avenida de las Suertes,VILLA DE VALLECAS,40.37029726652408,-3.6120673755658,POINT (4494000.934882544 -402360.1094749886)
93,Instalación Deportiva Básica Avenida del Ensanche de Vallecas,ENSANCHE DE VALLECAS,VILLA DE VALLECAS,40.37029726652408,-3.6120673755658,POINT (4494000.934882544 -402360.1094749886)
94,Instalación Deportiva Básica Avenida del Mediterráneo,LUIS MITJANS,DISTRITO,40.40126476374574,-3.670479840720475,POINT (4497448.220904402 -408875.7090828238)
95,Instalación Deportiva Básica Camino de la Suerte,SUERTE,VILLA DE VALLECAS,40.37581378381724,-3.617327043456161,POINT (4494615.030778571 -402946.780155657)
96,Instalación Deportiva Básica Circuito de Automodelismo,NAVAMURES,VILLA DE VALLECAS,40.3728517892704,-3.626705109538528,POINT (4494285.303053884 -403992.8311560594)
97,Instalación Deportiva Básica Colonia Vilda,PUENTELARRA,VILLA DE VALLECAS,40.38154336396018,-3.610581791001682,POINT (4495252.844722543 -402194.4059199485)
98,Instalación Deportiva Básica Eduardo Chillida,EDUARDO CHILLIDA,VILLA DE VALLECAS,40.36302244550467,-3.585074019427532,POINT (4493191.105511052 -399349.2863302894)
99,Instalación Deportiva Básica La Unión,ENRIQUE GARCIA ALVAREZ,VILLA DE VALLECAS,40.383448627578446,-3.6148637823176353,POINT (4495464.937698355 -402672.0241545608)
100,Instalación Deportiva Básica Nuestra Señora de la Torre,PUERTO DE REINOSA,VILLA DE VALLECAS,40.37850528372228,-3.6160557738839376,POINT (4494914.647177471 -402804.9806654895)
101,Instalación Deportiva Básica Pabellón del Cementerio,MONTES DE BARBANZA,VILLA DE VALLECAS,40.37710310380217,-3.618506339132532,POINT (4494758.557222763 -403078.3209046794)
102,Instalación Deportiva Básica Parkour,LA GAVIA,VILLA DE VALLECAS,40.37009915307182,-3.6134620847270176,POINT (4493978.880993919 -402515.67694556)
103,Instalación Deportiva Básica Parque del Cementerio,MONTES DE BARBANZA,VILLA DE VALLECAS,40.37710310380217,-3.618506339132532,POINT (4494758.557222763 -403078.3209046794)
104,Instalación Deportiva Básica Parque Real de Arganda,REAL DE ARGANDA,VILLA DE VALLECAS,40.37949103344629,-3.615099935376509,POINT (4495024.380334797 -402698.3650038533)
105,Instalación Deportiva Básica Parque Santa Eugenia,ZAZUAR,VILLA DE VALLECAS,40.38131130575197,-3.608459149580722,POINT (4495227.012120971 -401957.6448904999)
106,Instalación Deportiva Básica Parque Villa de Vallecas,PUERTO DE PORZUNA,VILLA DE VALLECAS,40.37277996162931,-3.6253783281885656,POINT (4494277.307237454 -403844.8382627664)
107,Instalación Deportiva Básica Parroquia Santa Eugenia,VIRGEN DE LAS VI&amp;Ntilde;AS,VILLA DE VALLECAS,40.38008195615357,-3.608267379645755,POINT (4495090.161549669 -401936.2547541678)
108,Instalación Deportiva Básica Peñaranda de Bracamonte,PEÑARANDA DE BRACAMONTE,VILLA DE VALLECAS,40.37533906377627,-3.604183911642277,POINT (4494562.185185341 -401480.7832961463)
109,Instalación Deportiva Básica Pista de Patinaje,PUERTO DE PORZUNA,VILLA DE VALLECAS,40.37277996162931,-3.6253783281885656,POINT (4494277.307237454 -403844.8382627664)
110,Instalación Deportiva Básica Poza de la Sal,POZA DE LA SAL,VILLA DE VALLECAS,40.37912373319082,-3.602985128269273,POINT (4494983.49265739 -401347.0709652301)
111,Instalación Deportiva Básica Puentelarra,PUENTELARRA,VILLA DE VALLECAS,40.38324470241852,-3.6091362899378696,POINT (4495442.236853392 -402033.1735779592)
112,Instalación Deportiva Básica Puerto Lumbreras,POZA DE LA SAL,DISTRITO,40.37930773206432,-3.603034130954479,POINT (4495003.975318294 -401352.5367226524)
113,Instalación Deportiva Básica P.A.R. Castrillo de Aza,SANTA EUGENIA,VILLA DE VALLECAS,40.38626820789469,-3.608600721310189,POINT (4495778.81194341 -401973.4358910552)
114,Instalación Deportiva Básica Rocódromo,LA GAVIA,VILLA DE VALLECAS,40.37678620920142,-3.608936762154641,POINT (4494723.280677172 -402010.9181099727)
115,Instalación Deportiva Básica Santa Eugenia,CERRO DE ALMODOVAR,VILLA DE VALLECAS,40.38004993117393,-3.6015066796262865,POINT (4495086.596545244 -401182.1650048706)
116,Instalación Deportiva Básica Skate Real de Arganda,REAL DE ARGANDA,VILLA DE VALLECAS,40.37949103344629,-3.615099935376509,POINT (4495024.380334797 -402698.3650038533)
117,Instalación Deportiva Básica Stela Maris,PEÑARANDA DE BRACAMONTE,VILLA DE VALLECAS,40.37533906377627,-3.604183911642277,POINT (4494562.185185341 -401480.7832961463)
118,Instalación Deportiva Canal de Isabel II,FILIPINAS,CHAMBERI,40.4416360683246,-3.7051845281578406,POINT (4501942.33397278 -412747.0336262433)
119,Instalación Deportiva Municipal Básica Abrantes - Colonia Velázquez,ABRANTES,CARABANCHEL,40.37480368698169,-3.734643175737238,POINT (4494502.587313186 -416033.2790057473)
120,Instalación Deportiva Municipal Básica Alameda de Osuna I,BALANDRO,BARAJAS,40.451251451000815,-3.590562683954837,POINT (4503012.71347608 -399961.4815393155)
121,Instalación Deportiva Municipal Básica Alas,ALAS,BARAJAS,40.472046513237736,-3.5847993053542355,POINT (4505327.609215308 -399318.6453413065)
122,Instalación Deportiva Municipal Básica Albaicín,ALBAICIN,USERA,40.36818417178253,-3.702392476781408,POINT (4493765.706251917 -412435.5733569479)
123,Instalación Deportiva Municipal Básica Albaida,ALBAIDA,SAN BLAS-CANILLEJAS,40.430241502639134,-3.619981910665231,POINT (4500673.896722864 -403242.9090337824)
124,Instalación Deportiva Municipal Básica Alcalde Martín de Alzaga,ALCALDE MARTIN DE ALZAGA,MONCLOA-ARAVACA,40.46295611393323,-3.716129120337457,POINT (4504315.670593623 -413967.9395658759)
125,Instalación Deportiva Municipal Básica Alerce,ALERCE,USERA,40.365063948772985,-3.695446430865286,POINT (4493418.364615333 -411660.7289333662)
126,Instalación Deportiva Municipal Básica Alfonso XIII,ALFONSO XIII,CHAMARTIN,40.45990434942118,-3.669142805075655,POINT (4503975.949722121 -408726.5651332098)
127,Instalación Deportiva Municipal Básica Alhaurín,ALHAURIN,BARAJAS,40.47351067334567,-3.585649589064375,POINT (4505490.598772963 -399413.4841010442)
128,Instalación Deportiva Municipal Básica Alicún,ALICUN,HORTALEZA,40.47947157886463,-3.661361646257895,POINT (4506154.163740001 -407858.595124325)
129,Instalación Deportiva Municipal Básica Aliseda,ALISEDA,CARABANCHEL,40.3761084833036,-3.74193729795335,POINT (4494647.836575329 -416846.9883316653)
130,Instalación Deportiva Municipal Básica Almudena,NICOLAS SALMERON,CIUDAD LINEAL,40.41909002674735,-3.62966306755892,POINT (4499432.520104997 -404322.7708279668)
131,Instalación Deportiva Municipal Básica Ambulatorio (El Paraiso),AJOFRIN,SAN BLAS-CANILLEJAS,40.425607242600144,-3.6256685841403034,POINT (4500158.013255119 -403877.2142028352)
132,Instalación Deportiva Municipal Básica Americio,AMERICIO,VILLAVERDE,40.356238545684384,-3.6827549805431934,POINT (4492435.925237465 -410244.9895557757)
133,Instalación Deportiva Municipal Básica Ana Tutor,CARDENAL HERRERA ORIA,FUENCARRAL-EL PARDO,40.49087287315406,-3.6865580970863943,POINT (4507423.350014685 -410669.2275104846)
134,Instalación Deportiva Municipal Básica Andévalo,ANDEVALO,PUENTE DE VALLECAS,40.374404666864585,-3.668237382541929,POINT (4494458.168596934 -408625.566985697)
135,Instalación Deportiva Municipal Básica Anfevi,HACIENDA DE PAVONES,MORATALAZ,40.403438145048085,-3.640076254498283,POINT (4497690.160604279 -405484.2981069009)
136,Instalación Deportiva Municipal Básica Aniceto Marinas,ANICETO MARINAS,MONCLOA-ARAVACA,40.43121588404326,-3.7336179867525616,POINT (4500782.36436461 -415918.9126903068)
137,Instalación Deportiva Municipal Básica Antonio Machado,ANTONIO MACHADO,MONCLOA-ARAVACA,40.46606393146319,-3.71907563377333,POINT (4504661.631258536 -414296.6356012892)
138,Instalación Deportiva Municipal Básica Antonio Pirala,ANTONIO PIRALA,CIUDAD LINEAL,40.43075144945157,-3.6596933792999033,POINT (4500730.663742356 -407672.5048419787)
139,Instalación Deportiva Municipal Básica Arcaute,INVIERNO,SAN BLAS-CANILLEJAS,40.443627672731296,-3.576711464888384,POINT (4502164.038361195 -398416.5499536781)
140,Instalación Deportiva Municipal Básica Arcos de Jalón,ARCOS DE JALON,SAN BLAS-CANILLEJAS,40.42425405686439,-3.615942488088141,POINT (4500007.377308068 -402792.3445919357)
141,Instalación Deportiva Municipal Básica Arequipa,AREQUIPA,HORTALEZA,40.46888551843247,-3.6390339556431934,POINT (4504975.728883186 -405368.0354438264)
142,Instalación Deportiva Municipal Básica Arganda,ARGANDA,ARGANZUELA,40.40011363617556,-3.708097745547213,POINT (4497320.077969451 -413072.0113131719)
143,Instalación Deportiva Municipal Básica Arjona,CONCEJAL FRANCISCO JOSE JIMENEZ MARTIN,LATINA,40.39998426244181,-3.7486569900905633,POINT (4497305.676151289 -417596.6220406673)
144,Instalación Deportiva Municipal Básica Arriaga,DAROCA,CIUDAD LINEAL,40.425090271008656,-3.642721665241288,POINT (4500100.464240802 -405779.3796242265)
145,Instalación Deportiva Municipal Básica Arroyo Belincoso,DOCTOR GARCIA TAPIA,MORATALAZ,40.41206030334087,-3.651284078326445,POINT (4498649.974874971 -406734.4772750713)
146,Instalación Deportiva Municipal Básica Arroyo de Opañel,ARROYO OPAÑEL,CARABANCHEL,40.38849471888208,-3.717872942583152,POINT (4496026.666012771 -414162.4701798387)
147,Instalación Deportiva Municipal Básica Arroyo Fontarrón,ARROYO FONTARRON,MORATALAZ,40.39571737351038,-3.636809858433754,POINT (4496830.68824817 -405119.9501710413)
148,Instalación Deportiva Municipal Básica Arroyo Media Legua,ARROYO DE LA MEDIA LEGUA,DISTRITO,40.42248384692211,-3.64868008730734,POINT (4499810.318438696 -406444.0131355418)
149,Instalación Deportiva Municipal Básica Aster,ASTER,CHAMARTIN,40.45643308528734,-3.664945117466593,POINT (4503589.530366332 -408258.3219916586)
150,Instalación Deportiva Municipal Básica Auditorio de Chamartín,JOAQUIN RODRIGO,CHAMARTIN,40.44549718316204,-3.677183546596661,POINT (4502372.151310379 -409623.4989252276)
151,Instalación Deportiva Municipal Básica Auditorio de Moratalaz,HACIENDA DE PAVONES,MORATALAZ,40.40142760716397,-3.6370875655785446,POINT (4497466.348550798 -405150.9267749795)
152,Instalación Deportiva Municipal Básica Avenida de Burgos,BURGOS,CHAMARTIN,40.47596608610469,-3.6755548165742606,POINT (4505763.934070985 -409441.8156513479)
153,Instalación Deportiva Municipal Básica Avenida Moratalaz M-30,RAMON ARECES,MORATALAZ,40.40799695992161,-3.6624292972075247,POINT (4498197.645554621 -407977.6886358473)
154,Instalación Deportiva Municipal Básica Avenida San Luis I,SAN LUIS,HORTALEZA,40.47176777610935,-3.655234408097839,POINT (4505296.580340111 -407175.121393301)
155,Instalación Deportiva Municipal Básica Ayacucho,NEVADO DEL RUIZ,HORTALEZA,40.46980031598844,-3.6352736110765855,POINT (4505077.563681295 -404948.5909570249)
156,Instalación Deportiva Municipal Básica Bacares,BACARES,HORTALEZA,40.476321176468005,-3.6624133831469945,POINT (4505803.462549414 -407975.9134653531)
157,Instalación Deportiva Municipal Básica Bacares (fútbol),BACARES,HORTALEZA,40.47743047451657,-3.663819108324953,POINT (4505926.949043319 -408132.7184361742)
158,Instalación Deportiva Municipal Básica Bahía de Santander II,BAHIA DE SANTANDER,BARAJAS,40.46527791543298,-3.594188775058509,POINT (4504574.132354298 -400365.9308671944)
159,Instalación Deportiva Municipal Básica Barceló,BARCELO,CENTRO,40.42677040240585,-3.699382450864087,POINT (4500287.495612402 -412099.7985860557)
160,Instalación Deportiva Municipal Básica Barrio de Las Cárcavas,MONTORO,HORTALEZA,40.48002694808795,-3.6322988549742967,POINT (4506215.987159143 -404616.7755169724)
161,Instalación Deportiva Municipal Básica Barrio de Santa Ana - Andrés Navarrete,HOSPITALET DE LLOBREGAT,FUENCARRAL-EL PARDO,40.49452475361937,-3.694665369930073,POINT (4507829.875488521 -411573.6005037275)
162,Instalación Deportiva Municipal Básica Barrio del Aeropuerto,MEDINA DE POMAR,BARAJAS,40.45120159850761,-3.5844180853262886,POINT (4503007.163921921 -399276.1249332774)
163,Instalación Deportiva Municipal Básica Barrio El Querol - Spartak de Manoteras,TIJOLA,HORTALEZA,40.480800850285206,-3.659267661643925,POINT (4506302.137557665 -407625.017342561)
164,Instalación Deportiva Municipal Básica Barrio Goya,SEPULVEDA,LATINA,40.40397057983696,-3.738177408397536,POINT (4497749.430973857 -416427.5460368175)
165,Instalación Deportiva Municipal Básica Barrio IV,LUIS DE HOYOS SAINZ,MORATALAZ,40.40272360732888,-3.634047589018456,POINT (4497610.618629224 -404811.8357310439)
166,Instalación Deportiva Municipal Básica Baterías - Barrio Alegría,JUAN PÉREZ ZÚÑIGA,CIUDAD LINEAL,40.44135712495445,-3.6481826411853,POINT (4501911.282138855 -406388.5252289699)
167,Instalación Deportiva Municipal Básica Belzunegui,BELZUNEGUI,CARABANCHEL,40.37487463533173,-3.739061311753124,POINT (4494510.485247385 -416526.151551206)
168,Instalación Deportiva Municipal Básica Bolera de la Mancha,TOMELLOSO,USERA,40.3806576674271,-3.698610830055276,POINT (4495154.249435483 -412013.722833067)
169,Instalación Deportiva Municipal Básica Boston,BOSTON,SALAMANCA,40.43729691048299,-3.666690201277176,POINT (4501459.301131381 -408452.9821190923)
170,Instalación Deportiva Municipal Básica Brasil - General Yagüe,BRASIL,TETUAN,40.45732746079714,-3.693648871749584,POINT (4503689.091792661 -411460.2088379888)
171,Instalación Deportiva Municipal Básica Briviesca,BRIVIESCA,CIUDAD LINEAL,40.48183793645468,-3.666587942769085,POINT (4506417.58546196 -408441.575404768)
172,Instalación Deportiva Municipal Básica Brujas,BRUJAS,MORATALAZ,40.39944882958802,-3.6282662898026574,POINT (4497246.072038651 -404166.9698363473)
173,Instalación Deportiva Municipal Básica Brunete,BRUNETE,FUENCARRAL-EL PARDO,40.51667296021272,-3.773795776219611,POINT (4510295.402568476 -420401.0995287931)
174,Instalación Deportiva Municipal Básica Bucaramanga,BUCARAMANGA,HORTALEZA,40.47211630976979,-3.639654414815554,POINT (4505335.378929715 -405437.2442110285)
175,Instalación Deportiva Municipal Básica Burgo de Osma,BURGO DE OSMA,HORTALEZA,40.46902347728972,-3.662533119132141,POINT (4504991.086392924 -407989.2696920639)
176,Instalación Deportiva Municipal Básica Calanda,CALANDA,HORTALEZA,40.46246051111333,-3.641472895181452,POINT (4504260.500340075 -405640.0858488304)
177,Instalación Deportiva Municipal Básica Caleruega,CALERUEGA,CIUDAD LINEAL,40.48107021761235,-3.671594589647619,POINT (4506332.123391359 -409000.057514864)
178,Instalación Deportiva Municipal Básica Camino Viejo de Leganés,CAMINO VIEJO DE LEGANES,CARABANCHEL,40.38117601531834,-3.731343103155248,POINT (4495211.951658789 -415665.1355135218)
179,Instalación Deportiva Municipal Básica Campo Aragón,RAFAEL ALBERTI,PUENTE DE VALLECAS,40.39244393012934,-3.63737994090768,POINT (4496466.290197852 -405183.5395392006)
180,Instalación deportiva municipal básica Campo de Fútbol Gabriel Fernández,CUART DE POBLET,DISTRITO,,,POINT (nan nan)
181,Instalación Deportiva Municipal Básica Campo de fútbol Orcasitas,RAFAELA YBARRA,USERA,40.36720552010195,-3.71208812822708,POINT (4493656.763245171 -413517.1515906234)
182,Instalación Deportiva Municipal Básica Campo de Fútbol Rodríguez Sahagún,CAPITAN BLANCO ARGIBAY,TETUAN,40.46913760683904,-3.7115353164247873,POINT (4505003.79123624 -413455.4835007364)
183,Instalación Deportiva Municipal Básica Campo de Fútbol San Martín de Porres,ERMITA DEL SANTO,CARABANCHEL,40.39949108577098,-3.732825709268183,POINT (4497250.77597542 -415830.5292173398)
184,Instalación Deportiva Municipal Básica Campo de Fútbol Tierra,DOCTOR GARCIA TAPIA,MORATALAZ,40.41154005341027,-3.642828451015245,POINT (4498592.060917611 -405791.2910283284)
185,Instalación Deportiva Municipal Básica Campo Fútbol Puerta Bonita,GENERAL RICARDOS,CARABANCHEL,40.3879590752267,-3.732889210629677,POINT (4495967.038433809 -415837.6131855811)
186,Instalación Deportiva Municipal Básica Canal de Panamá,CANAL DE PANAMA,CIUDAD LINEAL,40.44098424268766,-3.6520112027455554,POINT (4501869.773074791 -406815.5850664963)
187,Instalación Deportiva Municipal Básica Canillas - Club Deportivo Canillas,AGUSTIN DE ITURBIDE,HORTALEZA,40.46854356477104,-3.6486680716819206,POINT (4504937.66277572 -406442.6728455058)
188,Instalación Deportiva Municipal Básica Cárcavas,Camino de Valdehigueras,HORTALEZA,40.47940706872684,-3.6342965595743992,POINT (4506146.982504311 -404839.6068514535)
189,Instalación Deportiva Municipal Básica Cárcavas Oeste I,CARMEN RICO GODOY,HORTALEZA,40.48013725057699,-3.635430388203537,POINT (4506228.265976056 -404966.0784954572)
190,Instalación Deportiva Municipal Básica Cárcavas Oeste II,SAN ANDRES DE RABANEDO,HORTALEZA,40.48087402947953,-3.634569927305306,POINT (4506310.283828314 -404870.0993341484)
191,Instalación Deportiva Municipal Básica Carlos II,CARLOS II,SAN BLAS-CANILLEJAS,40.42766744656451,-3.6076270875712217,POINT (4500387.354111363 -401864.8362156032)
192,Instalación Deportiva Municipal Básica Carlos Solé,CARLOS SOLE,PUENTE DE VALLECAS,40.39214336748665,-3.649301187158133,POINT (4496432.831717516 -406513.2941097352)
193,Instalación Deportiva Municipal Básica Carmen Amaya,DOCTOR GARCIA TAPIA,MORATALAZ,40.41206030334087,-3.651284078326445,POINT (4498649.974874971 -406734.4772750713)
194,Instalación Deportiva Municipal Básica Caronte,CARONTE,CARABANCHEL,40.396642453268775,-3.721647689712961,POINT (4496933.667655818 -414583.560217459)
195,Instalación Deportiva Municipal Básica Carril del Conde,CARRIL DEL CONDE,HORTALEZA,40.46088946853693,-3.654432812836867,POINT (4504085.612680456 -407085.7063628748)
196,Instalación Deportiva Municipal Básica Carrión de los Condes,TEMPLARIOS,HORTALEZA,40.47430169221348,-3.6595649567170168,POINT (4505578.654590536 -407658.1796941794)
197,Instalación Deportiva Municipal Básica Casa Campo,CASA DE CAMPO,MONCLOA-ARAVACA,40.4184340515621,-3.736143042995308,POINT (4499359.497281402 -416200.5989255435)
198,Instalación Deportiva Municipal Básica Casa Campo I Lago,CASA DE CAMPO,MONCLOA-ARAVACA,40.41867020566187,-3.730157679235435,POINT (4499385.785835537 -415532.8944865428)
199,Instalación Deportiva Municipal Básica Casa Campo II Teleférico,CASA DE CAMPO,MONCLOA-ARAVACA,40.42111772146607,-3.737716485663515,POINT (4499658.242048569 -416376.1269669133)
200,Instalación Deportiva Municipal Básica Casa Campo III,CASA CAMPO,MONCLOA-ARAVACA,40.42663911970955,-3.735065416489925,POINT (4500272.8812895 -416080.3826711673)
201,Instalación Deportiva Municipal Básica Casa Campo IV,CASA CAMPO,MONCLOA-ARAVACA,40.43184675866799,-3.739236682144013,POINT (4500852.593006589 -416545.715339417)
202,Instalación Deportiva Municipal Básica Casalarreina,CASALARREINA,VICALVARO,40.40897549865364,-3.6140942577626016,POINT (4498306.575987991 -402586.190334795)
203,Instalación Deportiva Municipal Básica Casino de la Reina,CASINO,CENTRO,40.40695673994099,-3.704292111506432,POINT (4498081.848796064 -412647.4822242851)
204,Instalación Deportiva Municipal Básica Castroserna,CASTROSERNA,LATINA,40.40251081513204,-3.749427401089634,POINT (4497586.930710227 -417682.567723135)
205,Instalación Deportiva Municipal Básica Cazorla,CAMPILLO DE ARENAS,PUENTE DE VALLECAS,40.375847231386665,-3.66648465795306,POINT (4494618.754144968 -408430.0542093471)
206,Instalación Deportiva Municipal Básica Cementerio Civil,DAROCA,CIUDAD LINEAL,40.42041280188907,-3.6332470504462986,POINT (4499579.770760207 -404722.5406733864)
207,Instalación Deportiva Municipal Básica Cerro Blanco,ALBARDIN,USERA,40.37975674670092,-3.716284060235098,POINT (4495053.959398999 -413985.2237393878)
208,Instalación Deportiva Municipal Básica Cerro Cabezuelos,VILLALOBOS,PUENTE DE VALLECAS,40.379694900594856,-3.6521267878318,POINT (4495047.074721965 -406828.4781219644)
209,Instalación Deportiva Municipal Básica Cerro Negro,CERRO NEGRO,RETIRO,40.396646655094365,-3.671603413540554,POINT (4496934.135400902 -409001.0418064074)
210,Instalación Deportiva Municipal Básica Circuito de Bicicletas Enrique Otero,CASA DE CAMPO,MONCLOA-ARAVACA,40.40903648285251,-3.744761976078168,POINT (4498313.364717956 -417162.102355485)
211,Instalación Deportiva Municipal Básica Circuito de Footing Casa de Campo,CASA DE CAMPO,MONCLOA-ARAVACA,40.42045376372811,-3.733041347187696,POINT (4499584.330611272 -415854.5849583498)
212,Instalación Deportiva Municipal Básica Circuito Natural Footing Retiro,EL RETIRO,RETIRO,40.4152672609971,-3.688643512378128,POINT (4499006.971768257 -410901.8565232469)
213,Instalación Deportiva Municipal Básica Ciudad de Los Ángeles,ANOETA,VILLAVERDE,40.35283994612291,-3.698205911976654,POINT (4492057.594864872 -411968.5534895416)
214,Instalación Deportiva Municipal Básica Ciudad Pegaso I,UNO,SAN BLAS-CANILLEJAS,40.44951110145051,-3.594391876070514,POINT (4502818.978650337 -400388.5845286197)
215,Instalación Deportiva Municipal Básica Ciudad Pegaso II,SEIS,SAN BLAS-CANILLEJAS,40.448330002444166,-3.5945701505778493,POINT (4502687.499310375 -400408.4690734289)
216,Instalación Deportiva Municipal Básica Ciudad Pegaso III,ONCE,SAN BLAS-CANILLEJAS,40.44455842139296,-3.593947323119205,POINT (4502267.648828269 -400338.9995924719)
217,Instalación Deportiva Municipal Básica Clara del Rey,CLARA DEL REY,CHAMARTIN,40.44656763308464,-3.668173275110258,POINT (4502491.313250682 -408618.415928498)
218,Instalación Deportiva Municipal Básica Club de Petanca Esperanza de Canilllas,SILVANO,HORTALEZA,40.45949540975727,-3.6427781663423575,POINT (4503930.426766968 -405785.6820314042)
219,Instalación Deportiva Municipal Básica Club de Petanca Peonias,PEONIAS,HORTALEZA,40.45064086472342,-3.617909238515176,POINT (4502944.743322594 -403011.7192124534)
220,Instalación Deportiva Municipal Básica Club Deportivo Alzola,SEGURA,USERA,40.36794449938085,-3.719398063825001,POINT (4493739.026042204 -414332.6041038806)
221,Instalación Deportiva Municipal Básica Cocheras (Ciudad Lineal),SAN LAMBERTO,CIUDAD LINEAL,40.42244010701552,-3.6494391609819576,POINT (4499805.449334566 -406528.6844933488)
222,Instalación Deportiva Municipal Básica Cocheras (Retiro),COCHERAS,RETIRO,40.40067337688741,-3.676298173141196,POINT (4497382.388020471 -409524.7363231829)
223,Instalación Deportiva Municipal Básica Colombia,COLOMBIA,CHAMARTIN,40.457759787152014,-3.669215880508611,POINT (4503737.218142342 -408734.7165620987)
224,Instalación Deportiva Municipal Básica Colonia Euskalduna,HERMANDAD DE DONANTES DE SANGRE,VILLAVERDE,40.35456935043359,-3.699754645665144,POINT (4492250.111272112 -412141.317643174)
225,Instalación Deportiva Municipal Básica Colonia los Taxistas,SIERRA DE CUERDA LARGA,PUENTE DE VALLECAS,40.39966893400019,-3.656750264445625,POINT (4497270.573949735 -407344.2098637287)
226,Instalación Deportiva Municipal Básica Colonia Marconi,MARCONI,VILLAVERDE,40.33393325295466,-3.6931253996834856,POINT (4489952.911408797 -411401.8149134522)
227,Instalación Deportiva Municipal Básica Colonia San Cristóbal de Los Ángeles,ROCAFORT,VILLAVERDE,40.34108883895775,-3.6897253636919576,POINT (4490749.467598989 -411022.5377383956)
228,Instalación Deportiva Municipal Básica Colonia Sierra del Valle,PAYASO FOFO,PUENTE DE VALLECAS,40.39084028688396,-3.6598693175789343,POINT (4496287.773448362 -407692.130224228)
229,Instalación Deportiva Municipal Básica Concejal Gabriel Fernández (Parque Cuña Verde),CUART DE POBLET,LATINA,40.39717971610274,-3.75185460918738,POINT (4496993.475480917 -417953.3432419624)
230,Instalación Deportiva Municipal Básica Conde Duque,SANTA CRUZ DE MARCENADO,CENTRO,40.42890457185098,-3.710390334447589,POINT (4500525.070268301 -413327.7568795987)
231,Instalación Deportiva Municipal Básica Condesa de Venadito,CONDESA DE VENADITO,CIUDAD LINEAL,40.44505998039654,-3.652958563116748,POINT (4502323.48212115 -406921.2593871985)
232,Instalación Deportiva Municipal Básica Cordel de Pavones,CORDEL DE PAVONES,VICALVARO,40.39990644210208,-3.618584055837224,POINT (4497297.013230696 -403086.989570937)
233,Instalación Deportiva Municipal Básica Cordel de Pavones I,CORDEL DE PAVONES,VICALVARO,40.40930182229157,-3.608605091516184,POINT (4498342.9021692 -401973.9233466443)
234,Instalación Deportiva Municipal Básica Corregidor Diego de Valderrábano,CORREGIDOR DIEGO DE VALDERRABANO,MORATALAZ,40.40940474947577,-3.6588602502598873,POINT (4498354.359970933 -407579.5718727865)
235,Instalación Deportiva Municipal Básica Cuevas de Almanzora,MOJACAR,HORTALEZA,40.47940888739177,-3.658140197005035,POINT (4506147.184957164 -407499.2522275259)
236,Instalación Deportiva Municipal Básica Cuña Verde,CUÑA VERDE VILLAAMIL,DISTRITO,40.46756884233495,-3.7117310848273233,POINT (4504829.15717047 -413477.3221462847)
237,Instalación Deportiva Municipal Básica C. F. Nuestra Señora del Buen Camino,RIO ZANCARA,MONCLOA-ARAVACA,40.45272561748863,-3.7796095540530086,POINT (4503176.816938847 -421049.6948496212)
238,Instalación Deportiva Municipal Básica David González Rubio,DOCTOR TOLOSA LATOUR,USERA,40.37523914967068,-3.702253695777978,POINT (4494551.062797985 -412420.0920167705)
239,Instalación Deportiva Municipal Básica de Ribadeo y Verín,INTERIORES ENTRE PLAZA RIBADEO,FUENCARRAL-EL PARDO,40.47758381895994,-3.7107514580551744,POINT (4505944.01926867 -413368.041424391)
240,Instalación Deportiva Municipal Básica Dehesa del Príncipe,ARQUEROS,LATINA,40.37918609042024,-3.795324391950351,POINT (4494990.434232417 -422802.891692523)
241,Instalación Deportiva Municipal Básica del Poblado Dirigido (Olesa de Montserrat),CARDENAL HERRERA ORIA,FUENCARRAL-EL PARDO,40.49063911016057,-3.694227756362352,POINT (4507397.327637283 -411524.7841373716)
242,Instalación Deportiva Municipal Básica Diana,GALEON,BARAJAS,40.45721870340052,-3.5845999549053547,POINT (4503676.98497465 -399296.4102470086)
243,Instalación Deportiva Municipal Básica Doctor Cirajas,DOCTOR CIRAJAS,CIUDAD LINEAL,40.435515856536526,-3.6374563613179753,POINT (4501261.035112985 -405192.0637923909)
244,Instalación Deportiva Municipal Básica Doctor Vallejo-Nájera,GASOMETRO,ARGANZUELA,40.40233909331515,-3.7080621422210975,POINT (4497567.814725013 -413068.0396544033)
245,Instalación Deportiva Municipal Básica Drácena,DRACENA,CHAMARTIN,40.46425775938073,-3.668784966011135,POINT (4504460.569102031 -408686.6488594791)
246,Instalación Deportiva Municipal Básica Duque de Sevilla,DUQUE DE SEVILLA,CHAMARTIN,40.44166603700321,-3.679114249778397,POINT (4501945.670070823 -409838.8674457215)
247,Instalación Deportiva Municipal Básica Echegaray,ENCOMIENDA DE PALACIOS,MORATALAZ,40.39720166030288,-3.63557478412475,POINT (4496995.918298103 -404982.1849881096)
248,Instalación Deportiva Municipal Básica El Bosco,EL BOSCO,PUENTE DE VALLECAS,40.40148296368549,-3.651406031292048,POINT (4497472.510810586 -406748.0806311184)
249,Instalación Deportiva Municipal Básica El Bosque,GOLMAYO,HORTALEZA,40.46714774021119,-3.6618563692082393,POINT (4504782.280296481 -407913.7800839362)
250,Instalación Deportiva Municipal Básica El Capricho I,ALAMEDA DE OSUNA,BARAJAS,40.45430519267116,-3.599375619694702,POINT (4503352.654443837 -400944.4673414585)
251,Instalación Deportiva Municipal Básica El Cruce,SANTIAGO AMON,VILLAVERDE,40.34894700358768,-3.693879611293337,POINT (4491624.234484162 -411485.9481163647)
252,Instalación Deportiva Municipal Básica El Espinillo I,TERTULIA,VILLAVERDE,40.361575517254266,-3.6927606788274527,POINT (4493030.034195002 -411361.1298934313)
253,Instalación Deportiva Municipal Básica El Espinillo II,CONSENSO,VILLAVERDE,40.36060552171134,-3.686214416479886,POINT (4492922.054785092 -410630.8898367847)
254,Instalación Deportiva Municipal Básica El Espinillo III,UNANIMIDAD,VILLAVERDE,40.36157241219842,-3.693278850156952,POINT (4493029.688541766 -411418.9324906454)
255,Instalación Deportiva Municipal Básica El Parque,COMANDANTE FORTEA,MONCLOA-ARAVACA,40.42589471749026,-3.731697578357141,POINT (4500190.014813503 -415704.6793467707)
256,Instalación Deportiva Municipal Básica El Pedernoso - Parque de Villa Rosa - Paco Caño,PEDROÑERAS,HORTALEZA,40.46725432234968,-3.6309383657037775,POINT (4504794.144965866 -404465.0218114105)
257,Instalación Deportiva Municipal Básica El Plantío,RAFAEL VILLA,MONCLOA-ARAVACA,40.47175814207694,-3.8255057822510574,POINT (4505295.507884528 -426170.1122934579)
258,Instalación Deportiva Municipal Básica El Torero,TORERO,USERA,40.39227761286618,-3.706318951771014,POINT (4496447.775844807 -412873.5816800992)
259,Instalación Deportiva Municipal Básica El Vandel,FLORENCIO CANO CRISTOBAL,MORATALAZ,40.41031893017073,-3.632280273004103,POINT (4498456.126100389 -404614.7028178405)
260,Instalación Deportiva Municipal Básica Electra,CRONOS,SAN BLAS-CANILLEJAS,40.44127421398117,-3.6189277132249833,POINT (4501902.052531528 -403125.3217661338)
261,Instalación Deportiva Municipal Básica Enrique Tierno Galván,ENRIQUE TIERNO GALVAN,DISTRITO,40.39487669248672,-3.686126235234665,POINT (4496737.104064696 -410621.0531950853)
262,Instalación Deportiva Municipal Básica Eros,EROS,ARGANZUELA,40.39352590492843,-3.6801309337036407,POINT (4496586.735081538 -409952.2779776807)
263,Instalación Deportiva Municipal Básica Esfinge,ESFINGE,SAN BLAS-CANILLEJAS,40.44229135833031,-3.608914308760063,POINT (4502015.280522538 -402008.4136430008)
264,Instalación Deportiva Municipal Básica Esperanza I - Club Virgen de la Esperanza,SILVANO,HORTALEZA,40.45993986921884,-3.642319354553547,POINT (4503979.903767909 -405734.5039479662)
265,Instalación Deportiva Municipal Básica Esperanza II,SILVANO,HORTALEZA,40.45908220260012,-3.643098932325283,POINT (4503884.428756643 -405821.4618342509)
266,Instalación Deportiva Municipal Básica Estanque de las Tormentas,ARROYO DE POZUELO,MONCLOA-ARAVACA,40.45211512813871,-3.78329373903864,POINT (4503108.85757528 -421460.711282138)
267,Instalación Deportiva Municipal Básica Estefanita,ESTEFANITA,VILLAVERDE,40.345660999492566,-3.675218553605332,POINT (4491258.438181549 -409404.3058805856)
268,Instalación Deportiva Municipal Básica Estíbaliz,ESTIBALIZ,HORTALEZA,40.469514561623285,-3.6490195041524114,POINT (4505045.753650874 -406481.8735954466)
269,Instalación Deportiva Municipal Básica Euterpe,EUTERPE,SAN BLAS-CANILLEJAS,40.44749880003797,-3.5915203945028886,POINT (4502594.97028177 -400068.3031304347)
270,Instalación Deportiva Municipal Básica Eva Duarte,DOCTOR GOMEZ ULLA,SALAMANCA,40.42997423940213,-3.667961859746943,POINT (4500644.145115413 -408594.8329665313)
271,Instalación Deportiva Municipal Básica Evangelios-Almendrales,EVANGELIOS,USERA,40.38325838287727,-3.70058158190502,POINT (4495443.759755095 -412233.5640585265)
272,Instalación Deportiva Municipal Básica Félix Rodríguez de la Fuente,FELIX RODRIGUEZ DE LA FUENTE,MORATALAZ,40.41468322986084,-3.659006026996469,POINT (4498941.957719562 -407595.8328109152)
273,Instalación Deportiva Municipal Básica Fermín Caballero,FERMIN CABALLERO,FUENCARRAL-EL PARDO,40.47935162025493,-3.719158405265364,POINT (4506140.810008653 -414305.8691271507)
274,Instalación Deportiva Municipal Básica Francisco Laguna,FRANCISCO LAGUNA,PUENTE DE VALLECAS,40.39051190105737,-3.669975407440883,POINT (4496251.217705362 -408819.4404208874)
275,Instalación Deportiva Municipal Básica Frontón Orcasitas,RAFAELA YBARRA,USERA,40.37064655641207,-3.712229879684724,POINT (4494039.817655015 -413532.9644676902)
276,Instalación Deportiva Municipal Básica Frontón Polideportivo San Fermín,ESTAFETA,USERA,40.374396615335975,-3.692573918087233,POINT (4494457.272304869 -411340.2965301374)
277,Instalación Deportiva Municipal Básica Frontón San Fermín,PERALES,USERA,40.36990586456809,-3.6872392651660495,POINT (4493957.364216108 -410745.2120558059)
278,Instalación Deportiva Municipal Básica Frontón Tudelillas,PABLO IGLESIAS,TETUAN,40.451690390542296,-3.711021047869016,POINT (4503061.576002327 -413398.1150794494)
279,Instalación Deportiva Municipal Básica Fuente de Lima,FUENTE DE LIMA,LATINA,40.3825571125298,-3.781874842527356,POINT (4495365.694697105 -421302.4156084767)
280,Instalación Deportiva Municipal Básica Fuente Espina,FUENTESPINA,VILLA DE VALLECAS,40.379273217545474,-3.606412694549229,POINT (4495000.133179632 -401729.3822722749)
281,Instalación Deportiva Municipal Básica Fuerte de Navidad,FUERTE DE NAVIDAD,LATINA,40.38109378379431,-3.7649408263985062,POINT (4495202.797687408 -419413.2340299003)
282,Instalación Deportiva Municipal Básica Galeón,GALEON,BARAJAS,40.45591483433643,-3.585897770294804,POINT (4503531.838934374 -399441.1657018335)
283,Instalación Deportiva Municipal Básica Garrovillas,GARROVILLAS,LATINA,40.38011667026133,-3.7790546404419656,POINT (4495094.025906469 -420987.7875197471)
284,Instalación Deportiva Municipal Básica General Millán Astray,MAESTRA JUSTA FREIRE,LATINA,40.37967979685691,-3.768438598489448,POINT (4495045.393381548 -419803.4471649007)
285,Instalación Deportiva Municipal Básica Glorieta Avenida San Luis,Añastro,CIUDAD LINEAL,40.4671739676516,-3.6645674105696378,POINT (4504785.199921792 -408216.1896969242)
286,Instalación Deportiva Municipal Básica Glorieta de Segovia,Ciudad de Plasencia,CENTRO,40.41246022343046,-3.714538784977571,POINT (4498694.493775701 -413790.5313867555)
287,Instalación Deportiva Municipal Básica Gran Vía de Hortaleza,GRAN VIA DE HORTALEZA,HORTALEZA,40.4647876018932,-3.6596724032712897,POINT (4504519.55090072 -407670.1650297627)
288,Instalación Deportiva Municipal Básica Guadalajara,GUADALAJARA,SAN BLAS-CANILLEJAS,40.42048481589473,-3.618277425225656,POINT (4499587.787322648 -403052.7874246819)
289,Instalación Deportiva Municipal Básica Hermanos Trueba,HERMANOS TRUEBA,PUENTE DE VALLECAS,40.38569029812835,-3.662458124992885,POINT (4495714.479322497 -407980.9042975696)
290,Instalación Deportiva Municipal Básica Hogar del Ferroviario,MEDITERRANEO,MORATALAZ,40.40695911649336,-3.6611698838232103,POINT (4498082.113352664 -407837.204569976)
291,Instalación Deportiva Municipal Básica Hornero,HORNERO,CARABANCHEL,40.38821661890276,-3.72057984361246,POINT (4495995.708064685 -414464.4369941572)
292,Instalación Deportiva Municipal Básica Huerta de la Salud,ALCOBENDAS,HORTALEZA,40.47505435038131,-3.642315547728054,POINT (4505662.44011452 -405734.0793163705)
293,Instalación Deportiva Municipal Básica Illescas,ILLESCAS,LATINA,40.39727663517988,-3.7659134453115457,POINT (4497004.264463232 -419521.7397057354)
294,Instalación Deportiva Municipal Básica Imagen,IMAGEN,PUENTE DE VALLECAS,40.38336275152153,-3.667713277656222,POINT (4495455.378019428 -408567.1041374123)
295,Instalación Deportiva Municipal Básica Isabel Patacón,ISABEL PATACON,CARABANCHEL,40.3703691110204,-3.747622431727254,POINT (4494008.932575291 -417481.2086665949)
296,Instalación Deportiva Municipal Básica Isla de Tabarca,SANTIAGO DE COMPOSTELA,FUENCARRAL-EL PARDO,40.47680954600072,-3.720853707202184,POINT (4505857.827597115 -414494.9877437805)
297,Instalación Deportiva Municipal Básica Iván de Vargas,IVAN DE VARGAS,CARABANCHEL,40.40279748246847,-3.724235302224272,POINT (4497618.842372146 -414872.2210858624)
298,Instalación Deportiva Municipal Básica Jacinto Verdaguer,JACINTO VERDAGUER,CARABANCHEL,40.395564824892936,-3.716746133835096,POINT (4496813.706613755 -414036.7699401542)
299,Instalación Deportiva Municipal Básica Jardín Canarias,CANARIAS,ARGANZUELA,40.40224012314781,-3.694673997707994,POINT (4497556.797416382 -411574.562943891)
300,Instalación Deportiva Municipal Básica Jardín de Portugalete,ULISES,HORTALEZA,40.45739950911607,-3.653455421613813,POINT (4503697.112174837 -406976.6820415611)
301,Instalación Deportiva Municipal Básica Jardín Papelera Peninsular,ARGANDA,ARGANZUELA,40.40021085294591,-3.708405149944905,POINT (4497330.900090823 -413106.3032106478)
302,Instalación Deportiva Municipal Básica Jardines Alhambra,ALHAMBRA,LATINA,40.40293756394919,-3.744730107197148,POINT (4497634.436171249 -417158.5471371888)
303,Instalación Deportiva Municipal Básica Jardines de Bucaramanga,BUCARAMANGA,HORTALEZA,40.47216617986823,-3.638781934703648,POINT (4505340.93044368 -405339.9239243825)
304,Instalación Deportiva Municipal Básica Jardines General Fanjul,LAS AGUILAS,LATINA,40.385197861740814,-3.761902410218776,POINT (4495659.661554588 -419074.2681334092)
305,Instalación Deportiva Municipal Básica Jardines Vía Carpetana,VIA CARPETANA,LATINA,40.39252376178335,-3.74182286496722,POINT (4496475.177016925 -416834.2224954808)
306,Instalación Deportiva Municipal Básica Jazmin,JAZMIN,CIUDAD LINEAL,40.47862144632099,-3.6666387122877055,POINT (4506059.527418136 -408447.2386340634)
307,Instalación Deportiva Municipal Básica Jesús Aprendiz,ANTONIO DIAZ-CAÑABATE,RETIRO,40.40922156877915,-3.671905186964673,POINT (4498333.968389062 -409034.704168704)
308,Instalación Deportiva Municipal Básica Jesús Divino Obrero,HUMANES,PUENTE DE VALLECAS,40.39514492871647,-3.647421138991812,POINT (4496766.963985205 -406303.5830993679)
309,Instalación Deportiva Municipal Básica Joaquín Ibarra,JOAQUIN IBARRA,BARAJAS,40.45993921141184,-3.593481240325868,POINT (4503979.830541168 -400287.0132679119)
310,Instalación Deportiva Municipal Básica José de Cadalso,JOSE DE CADALSO,LATINA,40.37780868617553,-3.768531953881764,POINT (4494837.102293278 -419813.8619588112)
311,Instalación Deportiva Municipal Básica José de Pasamonte,DOCTOR GARCIA TAPIA,MORATALAZ,40.411890813674326,-3.646167263941804,POINT (4498631.107371596 -406163.7191587091)
312,Instalación Deportiva Municipal Básica José Durán,PARQUE DE PALOMERAS BAJAS,PUENTE DE VALLECAS,40.3805444480093,-3.664316183074008,POINT (4495141.645907545 -408188.1658846626)
313,Instalación Deportiva Municipal Básica Juan Clemente Núñez,JUAN CLEMENTE NU&amp;Ntilde;EZ,HORTALEZA,40.46196292860933,-3.6269611631430982,POINT (4504205.109709103 -404021.3921144658)
314,Instalación Deportiva Municipal Básica Juan de Mariana,JUAN DE MARIANA,ARGANZUELA,40.39848428796214,-3.686975938494456,POINT (4497138.699756009 -410715.8378635748)
315,Instalación Deportiva Municipal Básica Juan de Vera,CASAR DE CACERES,ARGANZUELA,40.39617174301425,-3.6925495357594422,POINT (4496881.268429973 -411337.5766553289)
316,Instalación Deportiva Municipal Básica Julián González,JULIAN GONZALEZ,CARABANCHEL,40.39866543915771,-3.719406801437597,POINT (4497158.865414856 -414333.5788235101)
317,Instalación Deportiva Municipal Básica La Cabrera,LA CABRERA,FUENCARRAL-EL PARDO,40.4721901295831,-3.719058403445219,POINT (4505343.596513743 -414294.7134821243)
318,Instalación Deportiva Municipal Básica La Chimenea,VALLANDES,USERA,40.39095814922708,-3.70404293417357,POINT (4496300.893824382 -412619.685861698)
319,Instalación Deportiva Municipal Básica La Chopera,ESCULTOR PERESEJO,MONCLOA-ARAVACA,40.45324709621828,-3.791691917222304,POINT (4503234.867685491 -422397.6385339819)
320,Instalación Deportiva Municipal Básica La Diligencia,DILGENCIA,PUENTE DE VALLECAS,40.3906112368466,-3.658959835961348,POINT (4496262.275714838 -407590.6803454147)
321,Instalación Deportiva Municipal Básica La Masó,LA MASO,FUENCARRAL-EL PARDO,40.48996671214207,-3.7143866142884456,POINT (4507322.476632252 -413773.5561632284)
322,Instalación Deportiva Municipal Básica La Perla,CORINDON,USERA,40.36727724832333,-3.689921583041418,POINT (4493664.747994251 -411044.4261497291)
323,Instalación Deportiva Municipal Básica Las Rosas,NIZA,SAN BLAS-CANILLEJAS,40.42658241694823,-3.606662437467681,POINT (4500266.569166983 -401757.2386948323)
324,Instalación Deportiva Municipal Básica Las Vistillas,GABRIEL MIRO,CENTRO,40.41246022343046,-3.714538784977571,POINT (4498694.493775701 -413790.5313867555)
325,Instalación Deportiva Municipal Básica Lili Alvarez,LA RIVIERA,MORATALAZ,40.405822647416606,-3.629115151051316,POINT (4497955.602193737 -404261.65446573)
326,Instalación Deportiva Municipal Básica Lonja de la Seda,LONJA DE LA SEDA,CARABANCHEL,40.36596587926967,-3.762461273109024,POINT (4493518.767058956 -419136.6148231962)
327,Instalación Deportiva Municipal Básica Los Arbolitos,SUR,PUENTE DE VALLECAS,40.37576586611201,-3.669652629081261,POINT (4494609.696604026 -408783.4350684994)
328,Instalación Deportiva Municipal Básica Los Caprichos,CAPRICHOS,LATINA,40.40579744690797,-3.7285454246920935,POINT (4497952.796885949 -415353.0382733781)
329,Instalación Deportiva Municipal Básica Los Cármenes,ALHAMBRA,LATINA,40.39746568039038,-3.743856743935349,POINT (4497025.308879802 -417061.1168119876)
330,Instalación Deportiva Municipal Básica Los Coronales,BAHIA DE MALAGA,BARAJAS,40.46697124729341,-3.596008451250797,POINT (4504762.633194745 -400568.8957096192)
331,Instalación Deportiva Municipal Básica Los Llanos,FLORENCIO CASTILLO,HORTALEZA,40.46090530019893,-3.627454138352421,POINT (4504087.375053009 -404076.3800155615)
332,Instalación Deportiva Municipal Básica Los Morales,MORALES,CARABANCHEL,40.360499290126505,-3.764896432162963,POINT (4492910.229139162 -419408.2813977291)
333,Instalación Deportiva Municipal Básica Los Morales - Patrimonio Humanidad I,PATRIMONIO DE LA HUMANIDAD,CARABANCHEL,40.36210281029443,-3.763548377327485,POINT (4493088.732187732 -419257.892178845)
334,Instalación Deportiva Municipal Básica Los Morales - Patrimonio Humanidad II,MORALES,CARABANCHEL,40.36018168641368,-3.762513874140488,POINT (4492874.873655576 -419142.4829912199)
335,Instalación Deportiva Municipal Básica Los Poblados,POBLADOS,CARABANCHEL,40.37350468781611,-3.7377388304920633,POINT (4494357.983387533 -416378.6196840839)
336,Instalación Deportiva Municipal Básica Los Rosales I,LOS ROSALES,VILLAVERDE,40.35175390495651,-3.677834634453844,POINT (4491936.697315248 -409696.1272448902)
337,Instalación Deportiva Municipal Básica Lucano,LUCANO,SAN BLAS-CANILLEJAS,40.439035523688,-3.6095923854429737,POINT (4501652.842668049 -402084.046806794)
338,Instalación Deportiva Municipal Básica Luis Buitrago,LUIS BUITRAGO,HORTALEZA,40.473376533828,-3.6511329371430814,POINT (4505475.666430161 -406717.6180949134)
339,Instalación Deportiva Municipal Básica Luis Mitjans,LUIS MITJANS,RETIRO,40.4013474319257,-3.6703892095738806,POINT (4497457.4234841 -408865.5993324652)
340,Instalación Deportiva Municipal Básica Lyon - Flandes,LYON,MORATALAZ,40.40823993397687,-3.6302454961405033,POINT (4498224.693302728 -404387.7368181305)
341,Instalación Deportiva Municipal Básica Machupichu,MACHUPICHU,HORTALEZA,40.46090954739925,-3.6313861722687983,POINT (4504087.847849185 -404514.9716880761)
342,Instalación Deportiva Municipal Básica Madrid Sur,PUERTO DE VELATE,PUENTE DE VALLECAS,40.38353838821057,-3.657500728121157,POINT (4495474.929806216 -407427.9215660747)
343,Instalación Deportiva Municipal Básica Madrid - Las Tablas,FROMISTA,FUENCARRAL-EL PARDO,40.50932926920616,-3.677183246701732,POINT (4509477.906625083 -409623.4654722038)
344,Instalación Deportiva Municipal Básica Maíz,RICARDO BELTRAN Y ROZPIDE,USERA,40.37541212545376,-3.7151896535378657,POINT (4494570.318374075 -413863.1383019825)
345,Instalación Deportiva Municipal Básica Mallorca,AGASTIA,CIUDAD LINEAL,40.44315431642945,-3.647398076003828,POINT (4502111.34457871 -406301.0105283677)
346,Instalación Deportiva Municipal Básica Manizales,GALAPA,HORTALEZA,40.47408401293854,-3.638977064178449,POINT (4505554.422644493 -405361.6895199777)
347,Instalación Deportiva Municipal Básica Mar de Japón,MAR DEL JAPON,HORTALEZA,40.47319613951648,-3.641504969656448,POINT (4505455.58502726 -405643.6635865113)
348,Instalación Deportiva Municipal Básica Maracena,MARACENA,USERA,40.36926754309533,-3.6975509077822384,POINT (4493886.306594798 -411895.4866314747)
349,Instalación Deportiva Municipal Básica María de Austria,EMPERATRIZ MARÍA DE AUSTRIA,CARABANCHEL,40.379458518215856,-3.7265416703894902,POINT (4495020.760755902 -415129.5084831237)
350,Instalación Deportiva Municipal Básica María de Villota,ESTEFANITA,VILLAVERDE,40.3485758079487,-3.6759305768300736,POINT (4491582.913174646 -409483.7313185051)
351,Instalación Deportiva Municipal Básica María Inmaculada,CRUCES,CARABANCHEL,40.37304552875526,-3.7572050357095375,POINT (4494306.870034686 -418550.2310690523)
352,Instalación Deportiva Municipal Básica Maris Stella,DOCTOR TOLOSA LATOUR,USERA,40.37561971602255,-3.703376726464257,POINT (4494593.427250487 -412545.3687428092)
353,Instalación Deportiva Municipal Básica Martala I,PICO DE LOS ARTILLEROS,MORATALAZ,40.40890578131284,-3.6402341225344186,POINT (4498298.815089114 -405501.9074234944)
354,Instalación Deportiva Municipal Básica Mártires Maristas,MARTIRES MARISTAS,MONCLOA-ARAVACA,40.46223975914155,-3.719777931388968,POINT (4504235.926342986 -414374.9800326499)
355,Instalación Deportiva Municipal Básica Maruja Mallo,MARUJA MALLO,HORTALEZA,40.4781907268689,-3.631028940050612,POINT (4506011.579948055 -404475.1247820053)
356,Instalación Deportiva Municipal Básica Matilde Gayo,MATILDE GAYO,USERA,40.38993834608832,-3.702854085952854,POINT (4496187.369858266 -412487.0669393372)
357,Instalación Deportiva Municipal Básica Medio Amposta,ALBERIQUE,SAN BLAS-CANILLEJAS,40.42900772144501,-3.6182140003992127,POINT (4500536.552828584 -403045.7129035303)
358,Instalación Deportiva Municipal Básica Mercedes Arteaga,MERCEDES ARTEAGA,CARABANCHEL,40.39285448180102,-3.7223142167649614,POINT (4496511.992600887 -414657.9144984554)
359,Instalación Deportiva Municipal Básica Miguel Aracil,JOAQUIN LORENZO,FUENCARRAL-EL PARDO,40.47423740722562,-3.727338140512541,POINT (4505571.498418421 -415218.3590358678)
360,Instalación Deportiva Municipal Básica Miguel Hernández,MIGUEL HERNANDEZ,PUENTE DE VALLECAS,40.38850190847638,-3.6350217118786703,POINT (4496027.466354748 -404920.4931343874)
361,Instalación Deportiva Municipal Básica Miguel Riesco,MIGUEL RIESCO,HORTALEZA,40.46287029502265,-3.63217498812228,POINT (4504306.117276196 -404602.9589679771)
362,Instalación Deportiva Municipal Básica Miguel Riesco - Ramón Power,MIGUEL RIESCO,HORTALEZA,40.46193413382862,-3.632148755414652,POINT (4504201.904288777 -404600.0328787581)
363,Instalación Deportiva Municipal Básica Miguel Yuste,MIGUEL YUSTE,SAN BLAS-CANILLEJAS,40.434344810420576,-3.622554460244901,POINT (4501130.674855663 -403529.8568769408)
364,Instalación Deportiva Municipal Básica Minaya,MINAYA,HORTALEZA,40.46831590638329,-3.636138538132129,POINT (4504912.319959921 -405045.0683664419)
365,Instalación Deportiva Municipal Básica Mirador de la Reina (Cerro Minguete),MIRADOR DE LA REINA,FUENCARRAL-EL PARDO,40.48749191925204,-3.72696204399105,POINT (4507046.983947916 -415176.4034234252)
366,Instalación Deportiva Municipal Básica Mirasierra,NURIA,FUENCARRAL-EL PARDO,40.49489198180427,-3.711889917152989,POINT (4507870.755143069 -413495.0404476704)
367,Instalación Deportiva Municipal Básica Molino,MOLINO,ARGANZUELA,40.39048711965757,-3.6941878490165,POINT (4496248.459052556 -411520.3324218965)
368,Instalación Deportiva Municipal Básica Mondariz,MONDARIZ,FUENCARRAL-EL PARDO,40.478823680515,-3.70542012801282,POINT (4506082.040025634 -412773.3154204898)
369,Instalación Deportiva Municipal Básica Monovar,MONOVAR,HORTALEZA,40.4754249166852,-3.656909774001053,POINT (4505703.691366774 -407362.0026130106)
370,Instalación Deportiva Municipal Básica Montalbos,MONTALBOS,HORTALEZA,40.46443633174865,-3.637175309306409,POINT (4504480.447687099 -405160.7140754063)
371,Instalación Deportiva Municipal Básica Montecarmelo,MONASTERIO DE EL PAULAR,FUENCARRAL-EL PARDO,40.500438927851775,-3.700512809058562,POINT (4508488.238352534 -412225.8923046865)
372,Instalación Deportiva Municipal Básica Montecarmelo McDonald´s,MONTECARMELO,FUENCARRAL-EL PARDO,40.50184008646731,-3.6969247603864392,POINT (4508644.214616137 -411825.6388499913)
373,Instalación Deportiva Municipal Básica Mozart,MOZART,MONCLOA-ARAVACA,40.4242665417876,-3.7212709022034463,POINT (4500008.767123362 -414541.5277932953)
374,Instalación Deportiva Municipal Básica Nevado de Cumbal,NEVADO DEL CUMBAL,HORTALEZA,40.46928001670359,-3.63118145043629,POINT (4505019.644229845 -404492.1363112412)
375,Instalación Deportiva Municipal Básica Nicolasa Gómez,NICOLASA GOMEZ,SAN BLAS-CANILLEJAS,40.44448358264842,-3.615148388183279,POINT (4502259.317817334 -402703.7694999352)
376,Instalación Deportiva Municipal Básica Novecento,NOVECENTO,PUENTE DE VALLECAS,40.37746079137422,-3.653695563861612,POINT (4494798.374821147 -407003.4689966841)
377,Instalación Deportiva Municipal Básica Nuestra Señora de la Paloma,SAN FRANCISCO,CENTRO,40.41119640568488,-3.712232920009733,POINT (4498553.806227809 -413533.3036267371)
378,Instalación Deportiva Municipal Básica Nuestra Señora de Loreto,TIMON,BARAJAS,40.472636002948775,-3.585807144623962,POINT (4505393.230909768 -399431.0575085046)
379,Instalación Deportiva Municipal Básica Nueva Esperanza,ANOETA,VILLAVERDE,40.35262335736215,-3.69377598291594,POINT (4492033.484314311 -411474.3882432663)
380,Instalación Deportiva Municipal Básica Ontanilla,LOS POBLADOS,CARABANCHEL,40.37450904700692,-3.728526373827137,POINT (4494469.788141227 -415350.9130424303)
381,Instalación Deportiva Municipal Básica Orcasur,ORCASUR,USERA,40.36548482367132,-3.70183444457642,POINT (4493465.216194704 -412373.3235955553)
382,Instalación Deportiva Municipal Básica Orión-Jupiter,ORION,BARAJAS,40.47625087283375,-3.579998848197848,POINT (4505795.636384648 -398783.2146473987)
383,Instalación Deportiva Municipal Básica Oscar y Jesús,SOLEDAD CAZORLA,LATINA,40.37554983576344,-3.770874016639184,POINT (4494585.648215626 -420075.1445103016)
384,Instalación Deportiva Municipal Básica Oyarzun,OYARZUN,USERA,40.36828992969283,-3.7159977494418186,POINT (4493777.479168639 -413953.2846124354)
385,Instalación Deportiva Municipal Básica Pablo Casals,ERMITA DEL SANTO,LATINA,40.41221418658154,-3.7238765894181416,POINT (4498667.105078963 -414832.2048621289)
386,Instalación Deportiva Municipal Básica Pádel - Madrid Las Tablas,CAMINO DE SANTIAGO,FUENCARRAL-EL PARDO,40.50272219093648,-3.674088278900579,POINT (4508742.410036471 -409278.2250624698)
387,Instalación Deportiva Municipal Básica Padre Claret,PADRE CLARET,CHAMARTIN,40.44961759191476,-3.6641939594197392,POINT (4502830.833114591 -408174.5321380146)
388,Instalación Deportiva Municipal Básica Padre Damián,PADRE DAMIAN,CHAMARTIN,40.45666161091837,-3.685964172263653,POINT (4503614.969723212 -410602.9750294837)
389,Instalación Deportiva Municipal Básica Palomeras Bajas,PUERTO DE BALBARAN,PUENTE DE VALLECAS,40.37819745002066,-3.660405647355635,POINT (4494880.379286557 -407751.9562104901)
390,Instalación Deportiva Municipal Básica PAR Manuel Noya,MANUEL NOYA,USERA,40.38907128615593,-3.7120469132313434,POINT (4496090.849188105 -413512.5539123771)
391,Instalación Deportiva Municipal Básica PAR Rafaela Ybarra,RAFAELA YBARRA,USERA,40.38063517341089,-3.711168779281528,POINT (4495151.745413052 -413414.5950218)
392,Instalación Deportiva Municipal Básica Parque Adelfas,MARTINEZ CORROCHANO esquina  con calle Luis Mitjans,RETIRO,40.40327621720137,-3.668687789801956,POINT (4497672.134878838 -408675.8090391169)
393,Instalación Deportiva Municipal Básica Parque Agustín Rodríguez Sahagún I,CAPITAN BLANCO ARGIBAY,TETUAN,40.46757296045154,-3.709596082138284,POINT (4504829.615597112 -413239.155439156)
394,Instalación Deportiva Municipal Básica Parque Agustín Rodríguez Sahagún II,SINESIO DELGADO,TETUAN,40.47406445678991,-3.687898995406082,POINT (4505552.245663986 -410818.8052578716)
395,Instalación Deportiva Municipal Básica Parque Alfredo Kraus,MAR ADRIATICO,HORTALEZA,40.470138614017166,-3.638880685402964,POINT (4505115.22284559 -405350.9390089742)
396,Instalación Deportiva Municipal Básica Parque Aluche,VALMOJADO,LATINA,40.39675520974048,-3.757541291696218,POINT (4496946.219648832 -418587.7435473942)
397,Instalación Deportiva Municipal Básica Parque Arroyo Fresno,VENTISQUERO DE LA CONDESA,FUENCARRAL-EL PARDO,40.49284296962057,-3.7169069720385446,POINT (4507642.66015015 -414054.7121061926)
398,Instalación Deportiva Municipal Básica Parque Arroyo Pozuelo I,ARROYO DE POZUELO,MONCLOA-ARAVACA,40.451500510488586,-3.772885180717082,POINT (4503040.438651435 -420299.5122800191)
399,Instalación Deportiva Municipal Básica Parque Boadilla,BOADILLA DEL MONTE,LATINA,40.39882092157157,-3.76670867691338,POINT (4497176.173637994 -419610.4560866996)
400,Instalación Deportiva Municipal Básica Parque Breogán,BRASILIA,SALAMANCA,40.43714103865148,-3.660887719467943,POINT (4501441.949558469 -407805.7299467587)
401,Instalación Deportiva Municipal Básica Parque Calle Onil,NAVIA,LATINA,40.38610150059709,-3.7692152839405386,POINT (4495760.254171929 -419890.094779825)
402,Instalación Deportiva Municipal Básica Parque Caramuel,SEPULVEDA,LATINA,40.40646058007316,-3.7291064770611655,POINT (4498026.616532225 -415415.6268358156)
403,Instalación Deportiva Municipal Básica Parque Cedral,RODRIGUEZ ILLANES,CIUDAD LINEAL,40.462882951414265,-3.665044100462656,POINT (4504307.526179266 -408269.3633094305)
404,Instalación Deportiva Municipal Básica Parque Cerro Almodóvar,CERRO DE ALMODOVAR,VILLA DE VALLECAS,40.38168820146643,-3.602327770076511,POINT (4495268.967959986 -401273.7492888264)
405,Instalación Deportiva Municipal Básica Parque Cerro Almodovar,CERRO ALMODOVAR,DISTRITO,40.39490618723927,-3.748188333818695,POINT (4496740.387405531 -417544.339616559)
406,Instalación Deportiva Municipal Básica Parque Cuña Verde,DAROCA,VICALVARO,40.40969329689759,-3.618025439807104,POINT (4498386.480923 -403024.6805131175)
407,Instalación Deportiva Municipal Básica Parque Darwin,MORATALAZ,MORATALAZ,40.40636372950178,-3.654976847656905,POINT (4498015.835175936 -407146.3914559268)
408,Instalación Deportiva Municipal Básica Parque de Atenas,VIRGEN DEL PUERTO,CENTRO,40.41761845138696,-3.720185155062114,POINT (4499268.705085215 -414420.407678255)
409,Instalación Deportiva Municipal Básica Parque de Berlín,MARCENADO,CHAMARTIN,40.44894781410388,-3.674069559283149,POINT (4502756.27378974 -409276.1369124383)
410,Instalación Deportiva Municipal Básica Parque de Comillas,ANTONIO DE LEYVA,CARABANCHEL,40.39308760343943,-3.715247014237789,POINT (4496537.943582969 -413869.5371133575)
411,Instalación Deportiva Municipal Básica Parque de la Alcazaba,EL FERROL,FUENCARRAL-EL PARDO,40.47439527561677,-3.7032857055134234,POINT (4505589.072247337 -412535.2151348026)
412,Instalación Deportiva Municipal Básica Parque de la Arganzuela,YESERIAS,ARGANZUELA,40.39698206031797,-3.7049351249517386,POINT (4496971.472539604 -412719.2120388693)
413,Instalación Deportiva Municipal Básica Parque de la Cornisa,ROSARIO,CENTRO,40.40963177567964,-3.713877154857581,POINT (4498379.632412345 -413716.7240326414)
414,Instalación Deportiva Municipal Básica Parque de la Ventilla,VIA LIMITE,TETUAN,40.47345238657359,-3.695336575110429,POINT (4505484.110319175 -411648.4743670484)
415,Instalación Deportiva Municipal Básica Parque de la Vicalvarada,VEREDA DEL PINAR,VICALVARO,40.41079351896063,-3.607616723630345,POINT (4498508.957082817 -401863.6802162137)
416,Instalación Deportiva Municipal Básica Parque de las Cruces,POBLADOS,CARABANCHEL,40.37699575251428,-3.7537977166449226,POINT (4494746.60693206 -418170.1137966771)
417,Instalación Deportiva Municipal Básica Parque de las Cruces I,ROMPEDIZO,LATINA,40.37720878002907,-3.7625290993275855,POINT (4494770.321046531 -419144.1815122773)
418,Instalación Deportiva Municipal Básica Parque de las Cruces II,VIDAUBA,LATINA,40.38268060798509,-3.7633919044762303,POINT (4495379.442148303 -419240.4360569348)
419,Instalación Deportiva Municipal Básica Parque de los Carneros,BAJA DE LA IGLESIA,MONCLOA-ARAVACA,40.45601148525373,-3.782631360506098,POINT (4503542.598065273 -421386.8146300846)
420,Instalación Deportiva Municipal Básica Parque de Roma I,JUAN ESPLANDIU,RETIRO,40.41604342375633,-3.662189960446734,POINT (4499093.373811387 -407950.9912695627)
421,Instalación Deportiva Municipal Básica Parque de Roma III,ALCALDE SAINZ DE BARANDA,RETIRO,40.41909788049616,-3.665261052668208,POINT (4499433.394380315 -408293.5638162031)
422,Instalación Deportiva Municipal Básica Parque de San Isidro - Gorrión,GORRION,CARABANCHEL,40.39630479229722,-3.729515382797533,POINT (4496896.079408403 -415461.2426067158)
423,Instalación Deportiva Municipal Básica Parque de San Isidro - Vicente Quesada,VICENTE QUESADA,CARABANCHEL,40.396901588702576,-3.7305941211312255,POINT (4496962.514480355 -415581.5821323322)
424,Instalación Deportiva Municipal Básica Parque de Skateboard Ignacio Echeverría,CHOPERA,ARGANZUELA,40.3933877847248,-3.698565632659468,POINT (4496571.359610802 -412008.6809808511)
425,Instalación Deportiva Municipal Básica Parque de Villa Rosa,EL PEDERNOSO,HORTALEZA,40.46658460115245,-3.629846894727888,POINT (4504719.591943216 -404343.2755074984)
426,Instalación Deportiva Municipal Básica Parque del Cementerio,BARBARA DE BRAGANZA,CENTRO,40.423889584580586,-3.694048986151304,POINT (4499966.804439026 -411504.8420932299)
427,Instalación Deportiva Municipal Básica Parque del Oeste,CAMOENS,MONCLOA-ARAVACA,40.430092287929895,-3.723207635665132,POINT (4500657.286217413 -414757.5797387243)
428,Instalación Deportiva Municipal Básica Parque Deportivo Doctor García Tapia 1,CARMEN AMAYA,MORATALAZ,40.412165904142334,-3.656506372334948,POINT (4498661.730302417 -407317.0045330551)
429,Instalación Deportiva Municipal Básica Parque Deportivo Doctor García Tapia 2,CARMEN AMAYA,MORATALAZ,40.4121646993816,-3.6567185117699,POINT (4498661.596189066 -407340.6679609488)
430,Instalación Deportiva Municipal Básica Parque Doña Guiomar II,ESTACION DE HORTALEZA,HORTALEZA,40.47600256074518,-3.6551340067790528,POINT (4505767.994409391 -407163.9219876659)
431,Instalación Deportiva Municipal Básica Parque Doña Guiomar III,MONÓVAR,HORTALEZA,40.47645416086136,-3.656518693476812,POINT (4505818.266304366 -407318.378914108)
432,Instalación Deportiva Municipal Básica Parque El Calero,VIRGEN DE NURIA,CIUDAD LINEAL,40.43628667197228,-3.6526968257803736,POINT (4501346.84189479 -406892.0636063458)
433,Instalación Deportiva Municipal Básica Parque Estafeta,ESTAFETA,USERA,40.37401825584634,-3.692570044259999,POINT (4494415.153519145 -411339.8644005501)
434,Instalación Deportiva Municipal Básica Parque Eugenia de Montijo,PARQUE EUGENIA DE MONTIJO,CARABANCHEL,40.378270955401405,-3.754424500702019,POINT (4494888.561868113 -418240.0371182689)
435,Instalación Deportiva Municipal Básica Parque Gabriela Mistral,ROSALIA DE CASTRO,FUENCARRAL-EL PARDO,40.48446752254184,-3.7336783173806616,POINT (4506710.30964618 -415925.6429497581)
436,Instalación Deportiva Municipal Básica Parque General García Escámez,ANSELMO LORENZO,LATINA,40.38272961974866,-3.769589261985271,POINT (4495384.898112867 -419931.8160802569)
437,Instalación Deportiva Municipal Básica Parque Huerta de la Salud,MAR DE LAS ANTILLAS,HORTALEZA,40.475722025270905,-3.646658003339625,POINT (4505736.765343245 -406218.4588370245)
438,Instalación Deportiva Municipal Básica Parque Huerta del Obispo,JUAN PEÑALVER,VILLAVERDE,40.346421062891125,-3.713682325360813,POINT (4491343.048052047 -413694.9900724593)
439,Instalación Deportiva Municipal Básica Parque Juan Pablo II,PICEAS,HORTALEZA,40.45716098978023,-3.61980435885098,POINT (4503670.560323827 -403223.1045436471)
440,Instalación Deportiva Municipal Básica Parque la Milanera (La Coma),RAMON GOMEZ DE LA SERNA,FUENCARRAL-EL PARDO,40.48459542261755,-3.72483060450493,POINT (4506724.54741748 -414938.6300953944)
441,Instalación Deportiva Municipal Básica Parque La Viña,CONCEJO DE TEVERGA,PUENTE DE VALLECAS,40.38641877802191,-3.672043768859728,POINT (4495795.573333302 -409050.162770214)
442,Instalación Deportiva Municipal Básica Parque Luis Buñuel,LUIS BUÑUEL,PUENTE DE VALLECAS,40.387331578974056,-3.64463649187668,POINT (4495897.18587049 -405992.9689059273)
443,Instalación Deportiva Municipal Básica Parque Madrid Sur,LA DILIGENCIA,PUENTE DE VALLECAS,40.383292552889394,-3.661115147599702,POINT (4495447.563543444 -407831.0989007173)
444,Instalación Deportiva Municipal Básica Parque Manoteras - Vélez Rubio,BACARES,DISTRITO,40.47727672099341,-3.66392377192171,POINT (4505909.833279412 -408144.3933967885)
445,Instalación Deportiva Municipal Básica Parque Manuel Azaña,VIRGEN DE LA PAZ,CIUDAD LINEAL,40.43223738609814,-3.6597904281119016,POINT (4500896.077453203 -407683.3303425974)
446,Instalación Deportiva Municipal Básica Parque Marchamalo,MARCHAMALO,PUENTE DE VALLECAS,40.39753890847985,-3.647856496992466,POINT (4497033.460593434 -406352.1453088027)
447,Instalación Deportiva Municipal Básica Parque Martala I,PICO DE LOS ARTILLEROS,MORATALAZ,40.40890578131284,-3.6402341225344186,POINT (4498298.815089114 -405501.9074234944)
448,Instalación Deportiva Municipal Básica Parque Martala II,PICO DE LOS ARTILLEROS,MORATALAZ,40.40689300555575,-3.639284014096078,POINT (4498074.753916753 -405395.9280666868)
449,Instalación Deportiva Municipal Básica Parque Meseta,COOPERATIVAS,USERA,40.3673502443602,-3.7076605178679096,POINT (4493672.873875905 -413023.2372534986)
450,Instalación Deportiva Municipal Básica Parque Norte,Arzobispo Morcillo,FUENCARRAL-EL PARDO,40.50393528202896,-3.660586880454314,POINT (4508877.450719171 -407772.1722299736)
451,Instalación Deportiva Municipal Básica Parque Olof Palme,CERECINOS,USERA,40.38493457007619,-3.7122978851036135,POINT (4495630.352060552 -413540.5507138842)
452,Instalación Deportiva Municipal Básica Parque Plata y Castañar,LOS FERROVIARIOS,VILLAVERDE,40.34867826813893,-3.7158020843006376,POINT (4491594.318990849 -413931.4573805474)
453,Instalación Deportiva Municipal Básica Parque Pradolongo,PRADOLONGO,USERA,40.37663024615052,-3.7119630453827375,POINT (4494705.918949764 -413503.1981585092)
454,Instalación Deportiva Municipal Básica Parque Rafael Finat,DAMASQUILLO,LATINA,40.382518789271934,-3.7660643557917455,POINT (4495361.428571554 -419538.5753378549)
455,Instalación Deportiva Municipal Básica Parque San Blas,ALBAIDA,SAN BLAS-CANILLEJAS,40.43147962796436,-3.62093644615012,POINT (4500811.724203606 -403349.3799278775)
456,Instalación Deportiva Municipal Básica Parque San Luciano,SAN LUCIANO,VILLAVERDE,40.362851102048886,-3.697873422713208,POINT (4493172.031644803 -411931.4637266869)
457,Instalación Deportiva Municipal Básica Parque Santa Adela,SANTA ADELA,HORTALEZA,40.479644201807766,-3.648385573479989,POINT (4506173.380038129 -406411.161421844)
458,Instalación Deportiva Municipal Básica Parque Sector Surbatán,SEPULVEDA,LATINA,40.40436959754291,-3.744793029127447,POINT (4497793.8494217 -417165.5665616115)
459,Instalación Deportiva Municipal Básica Parque Supermanzana 7,FERMIN CABALLERO,FUENCARRAL-EL PARDO,40.485480168010525,-3.702646262123085,POINT (4506823.036824107 -412463.8837018794)
460,Instalación Deportiva Municipal Básica Parque Tanatorio (Salvador Madariaga),SALVADOR DE MADARIAGA,CIUDAD LINEAL,40.439387584092685,-3.65714841286524,POINT (4501692.033853027 -407388.6219739074)
461,Instalación Deportiva Municipal Básica Parque Z,MARROQUINA,MORATALAZ,40.41028156820145,-3.645562579322765,POINT (4498451.966984994 -406096.2694664474)
462,Instalación Deportiva Municipal Básica paseo de la Vaguada,VAGUADA,FUENCARRAL-EL PARDO,40.48016602497203,-3.711297805142757,POINT (4506231.46912706 -413428.9882984352)
463,Instalación Deportiva Municipal Básica Paseo del Polideportivo,VIVERO DE LA PILARICA,VICALVARO,40.4080356871113,-3.602653807821838,POINT (4498201.956645656 -401310.1155043391)
464,Instalación Deportiva Municipal Básica Patrimonio Humanidad,PATRIMONIO DE LA HUMANIDAD,CARABANCHEL,40.36130109566346,-3.7594290655278826,POINT (4492999.485723251 -418798.3425197738)
465,Instalación Deportiva Municipal Básica Peonías - José Miguel Vicens,PEONIAS,HORTALEZA,40.45063098748498,-3.617916808553848,POINT (4502943.64379344 -403012.5635881043)
466,Instalación Deportiva Municipal Básica Piedrahíta,PIEDRAHITA,CARABANCHEL,40.3763711378577,-3.74031455284556,POINT (4494677.075146548 -416665.959407361)
467,Instalación Deportiva Municipal Básica Pinar de la Elipa,JOSE LUIS DE ARRESE,CIUDAD LINEAL,40.42042743288963,-3.653286144553088,POINT (4499581.399475739 -406957.7998330535)
468,Instalación Deportiva Municipal Básica Pinos de Osuna,PINOS DE OSUNA,BARAJAS,40.45067715296623,-3.591878464060468,POINT (4502948.782911305 -400108.2416980059)
469,Instalación Deportiva Municipal Básica Pirineos,PIRINEOS,MONCLOA-ARAVACA,40.45764922875292,-3.716226091186498,POINT (4503724.910837652 -413978.7570567283)
470,Instalación Deportiva Municipal Básica Pista de Patinaje Anfevi,HACIENDA DE PAVONES,MORATALAZ,40.403438145048085,-3.640076254498283,POINT (4497690.160604279 -405484.2981069009)
471,Instalación Deportiva Municipal Básica Pista de Patinaje Avenida Niza,NIZA,SAN BLAS-CANILLEJAS,40.42658241694823,-3.606662437467681,POINT (4500266.569166983 -401757.2386948323)
472,Instalación Deportiva Municipal Básica pista de patinaje Planetario,PLANETARIO,ARGANZUELA,40.39404247407592,-3.681861516547769,POINT (4496644.239295995 -410145.3238385844)
473,Instalación Deportiva Municipal Básica Pista de Petanca Centro de Mayores La Vaguada,MONFORTE DE LEMOS,FUENCARRAL-EL PARDO,40.47876758357458,-3.7086993281311904,POINT (4506075.795342792 -413139.1196950942)
474,Instalación Deportiva Municipal Básica Pista de Petanca de Islas Jarvi,CASTIELLO DE JACA,FUENCARRAL-EL PARDO,40.50051587389093,-3.675482387492565,POINT (4508496.803946432 -409433.7362643678)
475,Instalación Deportiva Municipal Básica Pista de Petanca Parque Fuencarral,AFUERAS A VALVERDE,FUENCARRAL-EL PARDO,40.49892401860584,-3.687244155098763,POINT (4508319.599426678 -410745.7575297778)
476,Instalación Deportiva Municipal Básica Pista de Skate,CAPITAN BLANCO ARGIBAY,TETUAN,40.46913760683904,-3.7115353164247873,POINT (4505003.79123624 -413455.4835007364)
477,Instalación Deportiva Municipal Básica Pista Deportiva Palas del Rey,PALAS DE REY,FUENCARRAL-EL PARDO,40.50393528202896,-3.660586880454314,POINT (4508877.450719171 -407772.1722299736)
478,Instalación Deportiva Municipal Básica Pista Deportiva Parque de Begoña,LLANO CASTELLANO,FUENCARRAL-EL PARDO,40.483895554775785,-3.684471539316277,POINT (4506646.638485712 -410436.4715997384)
479,Instalación Deportiva Municipal Básica Pista Deportiva Parque Miguel Aracil,JOAQUIN LORENZO,FUENCARRAL-EL PARDO,40.474228324656366,-3.7273498394981854,POINT (4505570.487351437 -415219.6641216314)
480,Instalación Deportiva Municipal Básica Pista Deportiva P.A.R. La Alcazaba,SINESIO DELGADO,DISTRITO,40.46441766170416,-3.720521169144801,POINT (4504478.369347253 -414457.8915872473)
481,Instalación Deportiva Municipal Básica Pista P.A.R. Moralzarzal,MORALZARZAL,FUENCARRAL-EL PARDO,40.49398709862307,-3.712613875660898,POINT (4507770.02400811 -413575.8005913732)
482,Instalación Deportiva Municipal Básica Pistas de Petanca Dehesa de la Villa,FRANCOS RODRIGUEZ,TETUAN,40.45444788431354,-3.703537628987032,POINT (4503368.538804807 -412563.3178123476)
483,Instalación Deportiva Municipal Básica Plan Parcial,PLAN PARCIAL,USERA,40.37150107432453,-3.709517912115378,POINT (4494134.942153903 -413230.4353219717)
484,Instalación Deportiva Municipal Básica Plaza Arturo Barea,Arturo Barea,CENTRO,40.41246022343046,-3.714538784977571,POINT (4498694.493775701 -413790.5313867555)
485,Instalación Deportiva Municipal Básica Plaza Colonia Oroquieta,ANDALUCIA,VILLAVERDE,40.35259550841902,-3.692409706865038,POINT (4492030.384184144 -411321.978593677)
486,Instalación Deportiva Municipal Básica Plaza de Arteijo,ARTEIJO,FUENCARRAL-EL PARDO,40.47753278561133,-3.706471117652205,POINT (4505938.33826229 -412890.5562122819)
487,Instalación Deportiva Municipal Básica Plaza de Bami - Benidorm,JOSE VILLENA,CIUDAD LINEAL,40.43086574120876,-3.655438508692452,POINT (4500743.386642569 -407197.8880836705)
488,Instalación Deportiva Municipal Básica Plaza de la Orotava,LA OROTAVA,CIUDAD LINEAL,40.43187659610899,-3.634109110520359,POINT (4500855.914495328 -404818.6980720672)
489,Instalación Deportiva Municipal Básica Plaza de María Soledad Torres Acosta,María Soledad Torres Acosta,CENTRO,40.41246022343046,-3.714538784977571,POINT (4498694.493775701 -413790.5313867555)
490,Instalación Deportiva Municipal Básica Plaza de Sestao,SESTAO,USERA,40.37003619714949,-3.716240027654892,POINT (4493971.872772704 -413980.311726304)
491,Instalación Deportiva Municipal Básica Plaza del Campillo de Mundo Nuevo,Campillo del Mundo Nuevo,CENTRO,40.41246022343046,-3.714538784977571,POINT (4498694.493775701 -413790.5313867555)
492,Instalación Deportiva Municipal Básica Plaza Fonsagrada,FONSAGRADA,FUENCARRAL-EL PARDO,40.477264048276304,-3.70791408832815,POINT (4505908.422558998 -413051.5237963228)
493,Instalación Deportiva Municipal Básica Plaza Munguía,MUNGUIA,USERA,40.37123807139888,-3.712730825889534,POINT (4494105.664802142 -413588.8468111004)
494,Instalación Deportiva Municipal Básica Plaza Vallandes,CALESAS,USERA,40.39112392741988,-3.7049283470996777,POINT (4496319.34816839 -412718.4559516535)
495,Instalación Deportiva Municipal Básica poblado de Santa Ana,Braille,FUENCARRAL-EL PARDO,40.49452475361937,-3.694665369930073,POINT (4507829.875488521 -411573.6005037275)
496,Instalación Deportiva Municipal Básica Poblado Dirigido La Elipa,JOSE LUIS DE ARRESE,CIUDAD LINEAL,40.42181734986071,-3.656022586072076,POINT (4499736.124325206 -407263.0398522028)
497,Instalación Deportiva Municipal Básica Pobladura del Valle,POBLADURA DEL VALLE,SAN BLAS-CANILLEJAS,40.42474106519291,-3.620898051733735,POINT (4500061.590827211 -403345.0973318156)
498,Instalación Deportiva Municipal Básica Poeta Esteban Villegas,POETA ESTEBAN DE VILLEGAS,RETIRO,40.40875051210095,-3.683108580090566,POINT (4498281.53059951 -410284.4335371262)
499,Instalación Deportiva Municipal Básica Polígono 20,PADRE CLARET,CHAMARTIN,40.44961759191476,-3.6641939594197392,POINT (4502830.833114591 -408174.5321380146)
500,Instalación Deportiva Municipal Básica Polígono de África,VILLAESCUSA,CIUDAD LINEAL,40.4203329571052,-3.629721806497472,POINT (4499570.882479525 -404329.3227595139)
501,Instalación Deportiva Municipal Básica Polígono de las Rosas,HELSINKI,SAN BLAS-CANILLEJAS,40.425863011303306,-3.602966146720566,POINT (4500186.485296916 -401344.9537641729)
502,Instalación Deportiva Municipal Básica Pradillo,PRADILLO,CHAMARTIN,40.4490802538165,-3.672985961911911,POINT (4502771.016911109 -409155.2630486403)
503,Instalación Deportiva Municipal Básica Pradillo - Santa Marca,PRADILLO,CHAMARTIN,40.4490802538165,-3.672985961911911,POINT (4502771.016911109 -409155.2630486403)
504,Instalación Deportiva Municipal Básica Prosperidad,PRADILLO,CHAMARTIN,40.44901182281747,-3.672360271279946,POINT (4502763.399207143 -409085.4681471232)
505,Instalación Deportiva Municipal Básica Pueblo Nuevo II,ASCAO,CIUDAD LINEAL,40.43092216576642,-3.6389220332415686,POINT (4500749.667795595 -405355.5511279609)
506,Instalación Deportiva Municipal Básica Puente Ventas,VIRGEN DE LA PAZ,CIUDAD LINEAL,40.43223738609814,-3.6597904281119016,POINT (4500896.077453203 -407683.3303425974)
507,Instalación Deportiva Municipal Básica Puerto Balbarán,PUERTO DE BALBARAN,PUENTE DE VALLECAS,40.385626656274496,-3.6703746985545727,POINT (4495707.394743732 -408863.9806530192)
508,Instalación Deportiva Municipal Básica Puerto Corlite,PUERTO DE CORLITE,PUENTE DE VALLECAS,40.38652159660646,-3.654113042627941,POINT (4495807.019045777 -407050.0371835745)
509,Instalación Deportiva Municipal Básica Puerto Costabona,PUERTO DE COSTABONA,PUENTE DE VALLECAS,40.38534920722133,-3.659085275095322,POINT (4495676.509256413 -407604.6726891038)
510,Instalación Deportiva Municipal Básica Puerto de Béjar,PUERTO DE BEJAR,ARGANZUELA,40.38829590912064,-3.686825277248739,POINT (4496004.534611364 -410699.0315471605)
511,Instalación Deportiva Municipal Básica Puerto Lumbreras,PUERTO DE LUMBRERAS,VILLA DE VALLECAS,40.38134838588081,-3.620134273150991,POINT (4495231.139862032 -403259.903858132)
512,Instalación Deportiva Municipal Básica Puerto Monasterio,PUERTO DEL MONASTERIO,PUENTE DE VALLECAS,40.39446617270601,-3.663852045873069,POINT (4496691.405211748 -408136.3925365633)
513,Instalación Deportiva Municipal Básica Puerto Rico,PUERTO RICO,CHAMARTIN,40.45912717792007,-3.6742066744010815,POINT (4503889.435386358 -409291.4319342469)
514,Instalación Deportiva Municipal Básica Puerto Velate,PUERTO DE VELATE,PUENTE DE VALLECAS,40.38385291081796,-3.656054694044056,POINT (4495509.942302714 -407266.6213842909)
515,Instalación Deportiva Municipal Básica P.A.R. Antonio López,ANTONIO LOPEZ,CARABANCHEL,40.39647249197412,-3.7127376145987054,POINT (4496914.747651042 -413589.6041161398)
516,Instalación Deportiva Municipal Básica P.A.R. Avda. Marqués de Corbera,MARQUES DE CORBERA,CIUDAD LINEAL,40.42725047921714,-3.6495207954387703,POINT (4500340.937518578 -406537.7904652304)
517,Instalación Deportiva Municipal Básica P.A.R. Ramón Gómez de la Serna,RAMON GOMEZ DE LA SERNA,FUENCARRAL-EL PARDO,40.483568695572096,-3.7247841639257406,POINT (4506610.252685596 -414933.4494100059)
518,Instalación Deportiva Municipal Básica Quinta de Los Molinos I,ALCALA,SAN BLAS-CANILLEJAS,40.441749846959226,-3.624297141481054,POINT (4501954.999752451 -403724.2398416348)
519,Instalación Deportiva Municipal Básica Quinta de Los Molinos II,IQUITOS,SAN BLAS-CANILLEJAS,40.44056376610166,-3.633660128447063,POINT (4501822.965835347 -404768.6169241242)
520,Instalación Deportiva Municipal Básica Ramírez de Prado,RAMIREZ DE PRADO,ARGANZUELA,40.39931615081684,-3.6894943693155353,POINT (4497231.302305403 -410996.7701536742)
521,Instalación Deportiva Municipal Básica Ramón Gómez de la Serna,RAMON GOMEZ DE LA SERNA,FUENCARRAL-EL PARDO,40.48459542261755,-3.72483060450493,POINT (4506724.54741748 -414938.6300953944)
522,Instalación Deportiva Municipal Básica Ramón Pérez de Ayala,RAMON PEREZ DE AYALA,PUENTE DE VALLECAS,40.39993169276006,-3.65170924804004,POINT (4497299.824121085 -406781.9032309938)
523,Instalación Deportiva Municipal Básica Ramón Power,MIGUEL RIESCO,HORTALEZA,40.46286014432641,-3.6321829085902193,POINT (4504304.98730586 -404603.8424450678)
524,Instalación Deportiva Municipal Básica Rancho del Cordobés,EDUARDO BARREIROS,USERA,40.36863673526262,-3.6960838611781632,POINT (4493816.085388073 -411731.8352249022)
525,Instalación Deportiva Municipal Básica Recinto Ferial San Antonio de la Florida,SAN ANTONIO DE LA FLORIDA,MONCLOA-ARAVACA,40.42540456917053,-3.7265642881836016,POINT (4500135.451752138 -415132.0316193554)
526,Instalación Deportiva Municipal Básica Ricardo Damas,RICARDO DAMAS,ARGANZUELA,40.38516507804954,-3.692142254888889,POINT (4495656.012090769 -411292.1440485757)
527,Instalación Deportiva Municipal Básica Ronda Sur,SUR,PUENTE DE VALLECAS,40.3736230480929,-3.663164496710361,POINT (4494371.159193275 -408059.6981902482)
528,Instalación Deportiva Municipal Básica Rosa Jardón,ROSA JARDON,CHAMARTIN,40.46547349226097,-3.6688677974512,POINT (4504595.903867201 -408695.8885492)
529,Instalación Deportiva Municipal Básica San Anselmo,SAN ANSELMO,PUENTE DE VALLECAS,40.3858046479703,-3.655036851643162,POINT (4495727.208688674 -407153.0846832386)
530,Instalación Deportiva Municipal Básica San Aureliano,SAN AURELIANO,VILLAVERDE,40.34255142792559,-3.715902155501163,POINT (4490912.282258129 -413942.6207240426)
531,Instalación Deportiva Municipal Básica San Benigno,SAN BENIGNO,LATINA,40.40467084433323,-3.7371479929917073,POINT (4497827.384061002 -416312.7077751039)
532,Instalación Deportiva Municipal Básica San Cristóbal de Los Ángeles II,GODELLA,VILLAVERDE,40.343480612836665,-3.6889961753443936,POINT (4491015.718649282 -410941.1962895371)
533,Instalación Deportiva Municipal Básica San Cristóbal de Los Ángeles III,MONCADA,VILLAVERDE,40.33966893636725,-3.690641012544881,POINT (4490591.404765638 -411124.6790761404)
534,Instalación Deportiva Municipal Básica San Juan Bautista - Cidamón,AGASTIA,CIUDAD LINEAL,40.451304609076615,-3.655896497411837,POINT (4503018.631006009 -407248.9751039504)
535,Instalación Deportiva Municipal Básica San Lamberto,SAN LAMBERTO,CIUDAD LINEAL,40.42153891136008,-3.6510925758289545,POINT (4499705.128693098 -406713.11595606)
536,Instalación Deportiva Municipal Básica San Pascual,ESTEBAN MORA,CIUDAD LINEAL,40.43840494775814,-3.655676791131407,POINT (4501582.647276631 -407224.4676429146)
537,Instalación Deportiva Municipal Básica San Pol,SAN POL DE MAR,MONCLOA-ARAVACA,40.42361742020711,-3.727099101124258,POINT (4499936.507239559 -415191.6928899683)
538,Instalación Deportiva Municipal Básica Sanchinarro I,Infanta Catalina Micaela,HORTALEZA,40.48895117841952,-3.65146043719268,POINT (4507209.427935375 -406754.1493880901)
539,Instalación Deportiva Municipal Básica Sanchinarro II,Infanta Catalina Micaela,HORTALEZA,40.48895117841952,-3.65146043719268,POINT (4507209.427935375 -406754.1493880901)
540,Instalación Deportiva Municipal Básica Sanchinarro III,MARIA TUDOR,HORTALEZA,40.49316433760569,-3.6611026501926633,POINT (4507678.43467061 -407829.7048507397)
541,Instalación Deportiva Municipal Básica Sanchinarro IV,NICETO ALCALA ZAMORA,HORTALEZA,40.48869693430128,-3.645393006068992,POINT (4507181.125609595 -406077.3543849348)
542,Instalación Deportiva Municipal Básica Sanchorreja,SANCHORREJA,LATINA,40.40244721879577,-3.7564266531216193,POINT (4497579.851198457 -418463.3953174934)
543,Instalación Deportiva Municipal Básica Sangenjo,SANGENJO,FUENCARRAL-EL PARDO,40.48884298191689,-3.698554678566628,POINT (4507197.383555797 -412007.4590317863)
544,Instalación Deportiva Municipal Básica Santa Ana I,HOSPITALET DE LLOBREGAT,FUENCARRAL-EL PARDO,40.49451923627522,-3.694680766255544,POINT (4507829.261300578 -411575.3179844277)
545,Instalación Deportiva Municipal Básica Santa Ana II,ALAMEDILLAS,FUENCARRAL-EL PARDO,40.49811073240421,-3.6936911073056353,POINT (4508229.064820844 -411464.9202654338)
546,Instalación Deportiva Municipal Básica Santa Eugenia,CERRO DE ALMODOVAR,VILLA DE VALLECAS,40.38004993117393,-3.6015066796262865,POINT (4495086.596545244 -401182.1650048706)
547,Instalación Deportiva Municipal Básica Santa Hortensia,SANTA HORTENSIA,CHAMARTIN,40.44378407690829,-3.6650091208692905,POINT (4502181.449194536 -408265.4614188538)
548,Instalación Deportiva Municipal Básica Santa Petronila,ANDALUCIA,VILLAVERDE,40.34832663162016,-3.692165872799477,POINT (4491555.174992636 -411294.7786506152)
549,Instalación Deportiva Municipal Básica Santa Rita,ALBA DE TORMES,CARABANCHEL,40.3793200408424,-3.742667573019971,POINT (4495005.345525202 -416928.4558934206)
550,Instalación Deportiva Municipal Básica Santa Virgilia,SANTA VIRGILIA,HORTALEZA,40.47677211929309,-3.641609789568702,POINT (4505853.661275079 -405655.3556930296)
551,Instalación Deportiva Municipal Básica Santuario de Valverde (Montecarmenlo),SANTUARIO DE VALVERDE,FUENCARRAL-EL PARDO,40.50715972029972,-3.697498319643489,POINT (4509236.393545566 -411889.6203353965)
552,Instalación Deportiva Municipal Básica Sepúlveda,SEPULVEDA,LATINA,40.39882022766974,-3.755867569618557,POINT (4497176.096393195 -418401.02444779)
553,Instalación Deportiva Municipal Básica Seseña,SESEÑA,LATINA,40.397645805419295,-3.757739811336285,POINT (4497045.360306299 -418609.8902638121)
554,Instalación Deportiva Municipal Básica Sierra del Valle,ARROYO DEL OLIVAR,PUENTE DE VALLECAS,40.3906112368466,-3.658959835961348,POINT (4496262.275714838 -407590.6803454147)
555,Instalación Deportiva Municipal Básica Sierra Elvira,SIERRA ELVIRA,PUENTE DE VALLECAS,40.40514349396312,-3.660433235882449,POINT (4497879.999177125 -407755.0336293046)
556,Instalación Deportiva Municipal Básica Sinesio Delgado,ISLA DE OZA,MONCLOA-ARAVACA,40.46387990945949,-3.7211400901596057,POINT (4504418.507041204 -414526.9350969105)
557,Instalación Deportiva Municipal Básica Soto Hidalgo,RIAÑO,BARAJAS,40.46124483748552,-3.5794097699469845,POINT (4504125.172170858 -398717.5105617516)
558,Instalación Deportiva Municipal Básica Talbot,TALBOT,USERA,40.36591698103636,-3.71073138828298,POINT (4493513.323732522 -413365.8025738253)
559,Instalación Deportiva Municipal Básica Telémaco,TELEMACO,SAN BLAS-CANILLEJAS,40.44742577488327,-3.63909008577834,POINT (4502586.841158734 -405374.2964460208)
560,Instalación Deportiva Municipal Básica Tercio Terol,CHINDASVINTO,CARABANCHEL,40.39473217663556,-3.728885688549131,POINT (4496721.016633734 -415390.9966247913)
561,Instalación Deportiva Municipal Básica Torrelaguna (La Colina),TORRELAGUNA,CIUDAD LINEAL,40.453221291412646,-3.6610334457155886,POINT (4503231.995107668 -407821.9852897975)
562,Instalación Deportiva Municipal Básica Torrespaña - Fuente del Berro,NUDO M-30 C/V ALCALDE SAINZ DE BARANDA,SALAMANCA,40.42129422167342,-3.6608740643380497,POINT (4499677.889961776 -407804.2067564987)
563,Instalación Deportiva Municipal Básica Tres Olivos I Pádel,CUEVA DE MONTESINOS,FUENCARRAL-EL PARDO,40.49896370465188,-3.6908807947318554,POINT (4508324.017257115 -411151.4269819494)
564,Instalación Deportiva Municipal Básica Tres Olivos II,CAMPO DE CALATRAVA,FUENCARRAL-EL PARDO,40.50049078129212,-3.6934087819699295,POINT (4508494.01065111 -411433.4265364657)
565,Instalación Deportiva Municipal Básica Tribaldos,TRIBALDOS,HORTALEZA,40.46705463815002,-3.639405862507256,POINT (4504771.916222439 -405409.5195787568)
566,Instalación Deportiva Municipal Básica Tribaldos II,TRIBALDOS,HORTALEZA,40.467706247348325,-3.6356019707978606,POINT (4504844.453026591 -404985.2174975373)
567,Instalación Deportiva Municipal Básica Trinquete,VELACHO BAJO,HORTALEZA,40.472578003657866,-3.658209520963392,POINT (4505386.774458238 -407506.9850912886)
568,Instalación Deportiva Municipal Básica Urbanización Arroyo del Santo,PRUNOS,HORTALEZA,40.45407070747356,-3.617972617050469,POINT (4503326.551671041 -403018.7885678292)
569,Instalación Deportiva Municipal Básica Urbis,DOCTOR GARCIA TAPIA,MORATALAZ,40.41116588362631,-3.6420705862194342,POINT (4498550.408527791 -405706.7551370924)
570,Instalación Deportiva Municipal Básica UVA de Vallecas,MONTE DE MONTJUICH,VILLA DE VALLECAS,40.38055163644936,-3.6158152393748777,POINT (4495142.446121033 -402778.1510747726)
571,Instalación Deportiva Municipal Básica UVA Pan Bendito,PAN BENDITO,CARABANCHEL,40.37554043596684,-3.734957451227099,POINT (4494584.601835055 -416068.3384511467)
572,Instalación Deportiva Municipal Básica Valdebernardo,CORDEL DE PAVONES,VICALVARO,40.40033980287463,-3.618411260519516,POINT (4497345.254731227 -403067.7156597819)
573,Instalación Deportiva Municipal Básica Valdelasierra,VALDELASIERRA,ARGANZUELA,40.39791145116776,-3.705800425076079,POINT (4497074.93185575 -412815.7385902713)
574,Instalación Deportiva Municipal Básica Valderriba,GRAN VIA DEL ESTE,VICALVARO,40.40124935583484,-3.5979267062108398,POINT (4497446.505703607 -400782.8563667326)
575,Instalación Deportiva Municipal Básica Valderromán,VALDERROMAN,MONCLOA-ARAVACA,40.47081288448664,-3.721768680723159,POINT (4505190.282290908 -414597.0573392301)
576,Instalación Deportiva Municipal Básica Valdetorres,VALDETORRES DE JARAMA,HORTALEZA,40.47058975661767,-3.643627109650829,POINT (4505165.443810153 -405880.3773380669)
577,Instalación Deportiva Municipal Básica Valdeyeros,ROSALIA DE CASTRO,FUENCARRAL-EL PARDO,40.48387386747736,-3.73068678732996,POINT (4506644.224266694 -415591.9195918255)
578,Instalación Deportiva Municipal Básica Valle Inclán,VALLE INCLÁN,LATINA,40.37843087041222,-3.773851914617546,POINT (4494906.363525686 -420407.3624068269)
579,Instalación Deportiva Municipal Básica Vereda de Ganapanes,BECERREA,FUENCARRAL-EL PARDO,40.47131740905896,-3.7130564782441233,POINT (4505246.445709391 -413625.174514664)
580,Instalación Deportiva Municipal Básica Via Lusitana,VIA LUSITANA,CARABANCHEL,40.37751706497499,-3.7286883543217897,POINT (4494804.63916973 -415368.9828775146)
581,Instalación Deportiva Municipal Básica Villa de Pons - Avenida de San Luis,SAN LUIS,HORTALEZA,40.47152762204448,-3.654689432548898,POINT (4505269.846511898 -407114.3313479593)
582,Instalación Deportiva Municipal Básica Villabona,VILLABONA,USERA,40.36884826418275,-3.7145784474448007,POINT (4493839.632679749 -413794.9558874539)
583,Instalación Deportiva Municipal Básica Villalonso,VILLALONSO,VILLAVERDE,40.34963625511252,-3.7079934408457023,POINT (4491700.961612936 -413060.3758085279)
584,Instalación Deportiva Municipal Básica Virgen de la Estrella,VIRGEN DE LA ESTRELLA,RETIRO,40.408549764339305,-3.668127133397626,POINT (4498259.183460906 -408613.2689120392)
585,Instalación Deportiva Municipal Básica Virgen del Cortijo,OÑA,HORTALEZA,40.4896891338737,-3.662689114816123,POINT (4507291.576760762 -408006.6705932153)
586,Instalación Deportiva Municipal Básica Vital Aza,VITAL AZA,CIUDAD LINEAL,40.43077285384415,-3.644721019010737,POINT (4500733.046468439 -406002.3974931309)
587,Instalación Deportiva Municipal Básica Yeserías I,YESERIAS,ARGANZUELA,40.40060409154897,-3.712719914790534,POINT (4497374.675211877 -413587.6296385889)
588,Instalación Deportiva Municipal Básica Yeseros,YESEROS,PUENTE DE VALLECAS,40.38139501897959,-3.629842097739682,POINT (4495236.331034842 -404342.7404357996)
589,Instalación Deportiva Municipal Básica Zazuar,ZAZUAR,VILLA DE VALLECAS,40.38257934400676,-3.6054546139177392,POINT (4495368.1694938 -401622.5176558497)
590,Instalación Deportiva Municipal Básica Zofío,RICARDO BELTRAN Y ROZPIDE,USERA,40.38074653650551,-3.717932056980073,POINT (4495164.142296039 -414169.0646430703)
591,Instalación Deportiva Municipal Canal de Remo Puente de la Princesa,SUR DEL PUENTE DE LA PRINCESA,DISTRITO,40.38826046424135,-3.697263762189049,POINT (4496000.588905449 -411863.4550577344)
592,Instalación Deportiva Municipal Embajadores M-30,PUERTO DE LA CRUZ VERDE,ARGANZUELA,40.38418473435094,-3.685817452497564,POINT (4495546.880729439 -410586.60840513)
593,Instalación Deportiva Municipal Nave de Terneras,CHOPERA,ARGANZUELA,40.3933877847248,-3.698565632659468,POINT (4496571.359610802 -412008.6809808511)
594,Instalación Deportiva Municipal Pádel  Marqués de Monistrol,RIBERA DEL MANZANARES,MONCLOA-ARAVACA,40.42217047822115,-3.7244049640242287,POINT (4499775.434394474 -414891.1477215103)
595,Instalación Deportiva Municipal Parque Calle Vado,ANTONIO LOPEZ,USERA,40.38577014172646,-3.696401590634661,POINT (4495723.367471182 -411767.2784334726)
596,Instalación Deportiva Municipal Parque Lineal del Manzanares Victoriano González,EMBAJADORES,USERA,40.37383457446904,-3.6826926059178593,POINT (4494394.706201756 -410238.0316764428)
597,Instalación Deportiva Municipal Puente de Praga,MANZANARES,CARABANCHEL,40.39522836906418,-3.707009644057296,POINT (4496776.252522223 -412950.6303714363)
598,Instalación Deportiva Municipal Rocódromo 'Roc 30',MANZANARES,CARABANCHEL,40.39927267070148,-3.718824070151145,POINT (4497226.462121102 -414268.572572413)
599,Instalación Deportiva San Vicente de Paúl,PELICANO,CARABANCHEL,40.38361446201276,-3.726103293297352,POINT (4495483.398303139 -415080.6051803128)
600,Madrid Caja Mágica,PERALES,USERA,40.36907980843444,-3.685252060454517,POINT (4493865.408067944 -410523.5388152356)
